"","USAF","WBAN","STATIONNAME","CTRY","STATE","LAT","LON","ELEV1M"
"1","724395","03958","ST LOUIS RGNL","US","IL",38.89,-90.046,1658
"2","724650","23065","GOODLAND RENNER FIELD","US","KS",39.368,-101.693,11241
"3","724675","23063","EAGLE COUNTY AP","US","CO",39.643,-106.918,19919
"4","724676","99999","ASPEN PITKIN CO SAR","US","CO",39.217,-106.867,24440
"5","724742","99999","VANDENBERG","US","FL",28.017,-82.35,70
"6","724800","23157","BISHOP AIRPORT","US","CA",37.373,-118.363,12634
"7","724815","23257","MERCED/MACREADY FLD","US","CA",37.285,-120.513,475
"8","724838","99999","YUBA CO","US","CA",39.1,-121.567,190
"9","724910","99999","MONTEREY NAF","US","CA",36.6,-121.85,460
"10","725016","99999","SHIRLEY/BROOKHAVEN","US","NY",40.817,-72.867,250
"11","725028","99999","BAY SHORE/FIRE ISL","US","NY",40.633,-73.267,50
"12","725062","99999","FARGO/GRAND FORKS","US","ND",47.533,-97.333,3010
"13","725088","54733","BEVERLY MUNI","US","MA",42.584,-70.918,329
"14","725146","99999","FULTON","US","NY",43.35,-76.383,1450
"15","725157","54757","WELLSVILLE MUNICIPA","US","NY",42.109,-77.992,6440
"16","725171","99999","ALLENTOWN QUEEN CITY","US","PA",40.567,-75.483,1220
"17","725235","04720","JAMESTOWN (AWOS)","US","NY",42.153,-79.251,5252
"18","725336","94895","DELAWARE CO JOHNSON","US","IN",40.234,-85.394,2886
"19","725408","99999","MANISTIQUE","US","MI",45.967,-86.183,2090
"20","725456","99999","KEOKUK MUNI","US","IA",40.467,-91.433,2050
"21","725465","14950","OTTUMWA INDUSTRIAL AP","US","IA",41.107,-92.448,2576
"22","725470","94908","DUBUQUE REGIONAL AP","US","IA",42.398,-90.704,3292
"23","725499","99999","LAMONI","US","IA",40.617,-93.95,3420
"24","725551","99999","BURWELL MUNI","US","NE",41.783,-99.15,6640
"25","725628","04935","BREWSTER FIELD ARPT","US","NE",40.453,-99.334,7038
"26","725680","99999","DOUGLAS AIRPORT","US","WY",42.8,-105.383,15020
"27","725685","24019","DOUGLAS","US","WY",42.75,-105.383,14646
"28","725700","99999","CRAIG-MOFFAT","US","CO",40.5,-107.533,19150
"29","725820","99999","ELKO RAOB","US","NV",40.85,-115.733,15930
"30","725823","99999","ELKO NEXRAD","US","NV",40.833,-115.783,20190
"31","725871","99999","","US","",0,0,0
"32","725920","24257","REDDING MUNICIPAL ARPT","US","CA",40.515,-122.313,1530
"33","725956","99999","","","",0,0,0
"34","726010","99999","SHEARWATER(CAN-MIL)","CN","",44.633,-63.5,510
"35","726058","99999","NEW CASTLES (CGLS)","US","NH",43.117,-70.483,10
"36","726083","99999","NORTHERN AROOSTOOK","US","ME",47.283,-68.3,3090
"37","726086","99999","LIBBY ISLAND LIGHT S","US","ME",44.567,-67.367,9
"38","726087","99999","PORTLAND HEAD(CGLS)","US","ME",43.617,-70.2,230
"39","726134","99999","WHITEFIELD (ASOS)","US","NH",44.35,-71.55,3190
"40","726145","94705","MONTPELIER AP","US","VT",44.203,-72.579,3417
"41","726184","99999","AUBURN-LEWISTON","US","ME",44.05,-70.283,880
"42","726261","99999","DARLINGTON        &","CN","",44.233,-78.35,1900
"43","726310","99999","MOUNT FOREST(MARS)&","CN","",43.983,-80.75,4120
"44","726382","99999","MEDICINE BOW/FD P","US","WY",41.85,-106.167,20000
"45","726409","99999","WAUKESHA","US","WI",43.033,-88.233,2840
"46","726410","14837","MADISON DANE CO REGIONAL ARPT","US","WI",43.141,-89.345,2640
"47","726418","99999","OSCEOLA","US","WI",45.317,-92.683,2750
"48","726518","99999","WINNER","US","SD",43.383,-99.85,6220
"49","726548","99999","WARROAD INTL","US","MN",48.933,-95.333,3270
"50","726556","14992","REDWOOD FALLS MUNI AR","US","MN",44.547,-95.082,3139
"51","726574","99999","MARSHFIELD MUNI","US","WI",44.633,-90.183,3890
"52","726577","99999","MINNEAPOLIS/BLAINE","US","MN",45.15,-93.217,2780
"53","726766","99999","MONIDA","US","MT",44.567,-112.317,20680
"54","726773","99999","BILLING YELL NEXRAD","US","MT",45.817,-108.533,11170
"55","726777","99999","BAKER MUNI ARPT","US","MT",46.333,-104.25,9020
"56","726959","99999","AURORA STATE","US","OR",45.25,-122.767,600
"57","726981","99999","MCMINNIVILLE","US","OR",45.2,-123.133,480
"58","727150","99999","RIVIERE DU LOUP   &","CN","",47.8,-69.55,1490
"59","727250","99999","VAL DOR","CN","",48.05,-77.783,3370
"60","727457","94962","DETROIT LAKES(AWOS)","US","MN",46.825,-95.883,4255
"61","727503","04909","CAMBRIDGE MUNI","US","MN",45.559,-93.251,2880
"62","727516","99999","GLENCOE","US","MN",44.75,-94.083,3020
"63","727517","04932","GLENCOE MUNI","US","MN",44.756,-94.068,3024
"64","727566","04902","AUSTIN MUNI","US","MN",43.665,-92.933,3758
"65","727650","99999","ROSEGLEN (AMOS)","US","ND",47.75,-101.833,6240
"66","727860","99999","SPOKANE (RAOB)","US","WA",47.667,-117.617,7280
"67","727926","99999","TOLEDO-WINLOCK MEM","US","WA",46.483,-122.8,1130
"68","727970","94240","QUILLAYUTE STATE AIRPORT","US","WA",47.934,-124.561,625
"69","728100","99999","PORT MENIER (MARS)&","CN","",49.85,-64.45,310
"70","728420","99999","SIOUX LOOKOUT ARPT","CN","",50.117,-91.9,3900
"71","728425","99999","DRYDEN AIRPORT","CN","",49.833,-92.75,4110
"72","728575","99999","FLIN FLON AIRPORT","CN","",54.683,-101.683,3040
"73","728930","99999","COMOX (CAN-MIL)","CN","",49.717,-124.9,240
"74","729020","99999","","US","",0,0,0
"75","729410","99999","GERMANSEN LANDING","CN","",55.783,-124.7,7460
"76","729455","99999","LIARD RIVER","CN","",59.45,-126.15,4270
"77","729595","99999","TUKTOYAKTUK       &","CN","",69.433,-133.033,10
"78","737390","99999","IRAKLION CRETE","GR","",35.333,0,198
"79","740035","99999","YUMA MCAS","US","AZ",32.616,-114.6,650
"80","740114","99999","PACIFIC BUOY","US","CA",39.2,-124,0
"81","741200","99999","COLD LAKE (CAN-MIL)","CN","",54.417,-110.283,5410
"82","741290","99999","KINDERSLEY ARPT   &","CN","",51.467,-109.167,6830
"83","742060","99999","MC CHORD AFB/TACOMA","US","WA",47.133,-122.483,881
"84","742513","53937","DURANT","US","OK",33.942,-96.384,2128
"85","743930","99999","PORTLAND","US","ME",43.533,-70.1,70
"86","744655","04808","AURORA MUNICIPAL","US","IL",41.77,-88.481,2176
"87","744925","99999","CROWS LANDING CALIFORNIA NAAS","US","CA",37.4,-121.1,500
"88","746400","99999","VICI","US","OK",36.067,-99.217,6480
"89","746934","99999","ASHEBORO","US","NC",35.65,-79.9,2050
"90","746939","99999","CHAPEL HILL/WILLIAM","US","NC",35.767,-79.05,1550
"91","747335","99999","SONORA","US","TX",30.583,-100.65,6520
"92","747350","99999","JAYTON","US","TX",33.017,-100.983,7070
"93","747520","99999","DEQUEEN","US","AR",34.117,-94.283,1950
"94","747804","13824","HUNTER AAF","US","GA",32.01,-81.146,128
"95","747809","03832","WINDER","US","GA",33.982,-83.667,2874
"96","747910","13717","MYRTLE BEACH AFB","US","SC",33.68,-78.918,76
"97","749003","99999","WOODBRIDGE-DEENETHORPE","UK","",52.499,-0.6,0
"98","749102","99999","WESLEYVILLE NEWFOUNDLAND","CN","",49.15,-53.583,260
"99","749219","99999","KALTAG ALASKA","US","AK",64.3,-158.716,480
"100","749222","99999","WISEMAN ALASKA WB","US","AK",67.433,-150.216,3930
"101","749268","99999","BLIDA ALGERIA","AL","",36.499,2.816,1700
"102","749273","99999","EL GUERRAH ALGERIA","AL","",36.133,6.616,7700
"103","749307","99999","ANGAUR ISLAND PALAU ISLANDS","KA","",6.9,134.15,60
"104","749402","99999","NOEMFOOR I NETHERLANDS NEW GU","NG","",-0.95,134.816,50
"105","749444","99999","FALL RIVER NEW GUINEA/GURNEY","NG","",-10.316,150.333,270
"106","749473","99999","SACRAMENTO PEAK NEW MEXICO OB","US","NM",32.8,-105.816,28100
"107","749487","99999","SHAWNEE OKLAHOMA NAS","US","OK",-35.35,-96.949,3290
"108","749519","99999","SAN GIOVANNI ITALY","IY","",41.233,15.8,1670
"109","760801","99999","NOGALES-IN-SONORA","MX","",31.233,-110.983,12220
"110","761220","99999","NUEVA CASAS GRANDES","MX","",30.367,-107.95,14870
"111","761610","99999","HERMOSILLO INTL   &","MX","",29.083,-110.95,2110
"112","763930","99999","MONTERREY (CITY)","MX","",25.733,-100.3,5150
"113","764010","99999","PUERTO CORTES","MX","",24.467,-111.533,50
"114","764235","99999","DURANGO INTL","MX","",24.117,-104.517,18600
"115","766480","99999","COZUMEL AIRPORT","MX","",20.517,-86.95,30
"116","766620","99999","ZAMORA","MX","",19.983,-102.317,15620
"117","766753","99999","LICENCIADO ADOLFO L","MX","",19.333,-99.567,25800
"118","783260","99999","MATANZAS","CU","",23.017,-81.517,460
"119","784670","99999","SABANA DE LA MAR","DR","",19.05,-69.383,100
"120","784786","99999","PUNTA CANA","DR","",18.883,-71.35,0
"121","787620","99999","JUAN SANTAMARIA INT","CS","",9.983,-84.183,9340
"122","800050","99999","CAYOS ALBURQUERQUE","CO","",12.167,-81.833,0
"123","804020","99999","BOGUS VENEZUELAN","VN","",NA,NA,NA
"124","804500","99999","SAN FERNANDO DE APU","VN","",7.9,-67.417,480
"125","812000","99999","ZORG EN HOOP","SM","",5.817,-55.183,100
"126","821410","99999","SOURE","BZ","",-0.717,-48.55,110
"127","822120","99999","FONTE BOA","BZ","",-2.533,-66.167,560
"128","828610","99999","CONCEICAO DO ARAGUA","BZ","",-8.25,-49.283,1990
"129","829930","99999","MACEIO (AEROPORTO)","BZ","",-9.517,-35.783,1180
"130","832140","99999","MATUPA","BZ","",-10.25,-54.917,2850
"131","832880","99999","BOM JESUS DA LAPA","BZ","",-13.267,-43.417,4430
"132","834190","99999","ANAPOLIS (BRAZ-AFB)","BZ","",-16.233,-48.967,11360
"133","834410","99999","SALINAS","BZ","",-16.183,-42.283,4720
"134","835660","99999","BELO HORIZONTE (CON","BZ","",-19.617,-43.567,8270
"135","836170","99999","URUBUPUNGA","BZ","",-20.8,-51.567,3560
"136","836993","99999","MACAE","BZ","",-22.333,-41.767,20
"137","837420","99999","VASSOURAS","BZ","",-22.4,-43.667,4370
"138","837550","99999","RIO DE JANEIRO (AER","BZ","",-22.9,-43.167,30
"139","837570","99999","TREMEMBE (PIRAI)","BZ","",-22.633,-43.9,5450
"140","837820","99999","SANTOS","BZ","",-23.933,-46.317,140
"141","838280","99999","TOLEDO","BZ","",-24.733,-53.733,5500
"142","838340","99999","GUARAPUAVA","BZ","",-25.4,-51.467,10240
"143","839270","99999","URUGUAIANA","BZ","",-29.75,-57.083,620
"144","839280","99999","URUGUAIANA (AEROPOR","BZ","",-29.783,-57.033,780
"145","841980","99999","MONTALVO","EQ","",-2.067,-76.983,2910
"146","843770","99999","IQUITOS","PR","",-3.783,-73.3,1260
"147","847920","99999","TACNA","PE","",-18,-69.75,9019
"148","853645","99999","COLLPANI","BO","",0,0,0
"149","856720","99999","CHILLAN","CH","",-36.567,-72.033,1480
"150","858360","99999","ALTO PALENA","CH","",-43.633,-71.8,2770
"151","863600","99999","SALTO","UY","",-31.383,-57.95,330
"152","864250","99999","PAYSANDU","UY","",-32.367,-58.05,520
"153","870780","99999","LAS LOMITAS","AG","",-24.7,-60.583,1300
"154","872110","99999","TINOGASTA","AG","",-28.067,-67.567,12090
"155","872200","99999","CATAMARCA(OLD SITE)","AG","",-28.45,-65.767,5370
"156","873360","99999","LA CUMBRE","AG","",-31,-64.533,11380
"157","874670","99999","MARCOS JUAREZ AERO","AG","",-32.7,-62.15,1100
"158","876410","99999","AZUL AERO","AG","",-36.833,-59.883,1470
"159","876570","99999","","","",0,0,0
"160","876730","99999","PUELCHES","AG","",-38.133,-65.917,2310
"161","879340","99999","RIO GRANDE B.A.","AG","",-53.8,-67.75,200
"162","889630","99999","BASE ESPERANZA","AY","",-63.4,-56.983,240
"163","890220","99999","HALLEY","AY","",-75.5,-26.7,300
"164","890830","57801","SIPLE STATION","AY","",-75.917,-83.917,539
"165","895740","99999","PROGRESS","AY","",-69.383,76.383,640
"166","898610","99999","SANDRA","AY","",-74.483,160.483,15250
"167","911904","99999","KAPALUA","US","HI",20.95,-156.667,800
"168","912324","99999","SAIPAN (CIVILIAN)","MY","",15.117,145.733,30
"169","912333","99999","WEST TINIAN","MY","",15,145.617,830
"170","912810","99999","KONA/HAWAII ISLAND","US","HI",19.65,-156,90
"171","913480","40504","POHNPEI WSO","KA","PC",6.967,158.217,460
"172","913481","99999","POHNPEI WEATHER CEN","KA","",6.967,158.217,390
"173","913710","99999","WOTJE ATOLL","MH","",9.467,170.25,30
"174","915900","99999","LA TONTOUTA (NLLE-C","NC","",-22.017,166.217,140
"175","917200","99999","ATAFU","NZ","",-8.533,-172.517,30
"176","919200","99999","TAIOHOE","PF","",-8.917,-140.1,120
"177","919510","99999","RIMATARA","PF","",-22.65,-152.783,40
"178","920110","99999","KUNDIAWA","NG","",-6.017,144.967,14930
"179","920120","99999","KEREMA","NG","",-7.95,145.767,30
"180","920260","99999","SARAMANDI","NG","",-4.083,144.083,400
"181","931670","99999","","","",0,0,0
"182","934100","99999","LEVIN AWS","NZ","",-40.617,175.25,140
"183","934360","99999","WELLINGTON AIRPORT","NZ","",-41.333,174.8,80
"184","937080","99999","HAAST","NZ","",-43.867,169,40
"185","937090","99999","HAAST AWS","NZ","",-43.867,169,50
"186","937510","99999","AVIEMORE","NZ","",-44.667,170.35,2410
"187","940570","99999","SAFIA","NG","",-9.583,148.633,450
"188","940770","99999","GURNEY","NG","",-10.317,150.333,200
"189","941060","99999","","","",0,0,0
"190","942000","99999","MANDORA","AU","",-19.733,120.85,80
"191","942360","99999","ELLIOTT","AU","",-17.55,133.533,2230
"192","942600","99999","BURKETOWN AIRPORT","AU","",-17.75,139.533,60
"193","942950","99999","LUCINDA POINT AWS","AU","",-18.517,146.4,100
"194","943030","99999","THEVENARD ISLAND","AU","",-21.45,115.017,60
"195","943100","99999","BEDOUT ISLAND","AU","",-19.583,119.1,100
"196","943430","99999","HUGHENDEN AIRPORT","AU","",-20.817,144.233,3160
"197","943590","99999","CLERMONT","AU","",-22.817,147.633,2690
"198","944300","99999","MEEKATHARRA AIRPORT","AU","",-26.617,118.55,5190
"199","944400","99999","WILUNA YEELIRRIE","AU","",-27.283,120.1,4880
"200","944920","99999","THARGOMINDAH POST O","AU","",-28,143.817,1300
"201","945000","99999","CUNNAMULLA POST OFF","AU","",-28.067,145.683,1910
"202","945130","99999","BOLLON MARY ST","AU","",-28.033,147.483,1850
"203","945660","99999","GYMPIE","AU","",-26.183,152.633,650
"204","945670","99999","MARYBOROUGH COMPOSI","AU","",-25.517,152.717,110
"205","945860","99999","LISMORE CENTRE STRE","AU","",-28.8,153.25,130
"206","946070","99999","WANNEROO (OCEAN REE","AU","",-31.75,115.717,100
"207","946160","99999","BRIDGETOWN POST OFF","AU","",-33.95,116.133,1510
"208","946280","99999","NEWDEGATE RES. STAT","AU","",-33.117,118.833,3210
"209","946340","99999","SOUTHERN CROSS","AU","",-31.233,119.333,3560
"210","946550","99999","TARCOOLA","AU","",-30.717,134.583,1240
"211","947070","99999","CONDOBLIN AG RESEAR","AU","",-33.067,147.233,1950
"212","947390","99999","JERRYS PLAINS","AU","",-32.482,150.9,900
"213","947440","99999","KATOOMBA","AU","",-33.717,150.283,10300
"214","947870","99999","PORT MACQUARIE","AU","",-31.433,152.917,90
"215","948120","99999","ROBE (P.O.)","AU","",-37.167,139.75,40
"216","948400","99999","MORTLAKE AWS","AU","",-38.067,142.767,1310
"217","948630","99999","SHEOAKS AWS","AU","",-37.9,144.117,2370
"218","949740","99999","CAPE SORELL","AU","",-42.2,145.167,200
"219","949999","00025","MOUNT MAGNET","AU","",-28.07,117.83,4270
"220","949999","00071","NGUKURR (ROPER RIVER)","AU","",-14.73,134.73,329
"221","949999","00089","RABBIT FLAT","AU","",-20.22,130.02,3395
"222","949999","00100","BUNDALEER FOREST RESERVE","AU","",-33.28,138.58,4580
"223","949999","00150","SOUTH JOHNSTON EEXP STATION","AU","",-17.6,146,1800
"224","949999","00157","MILLAROO","AU","",-20.07,147.28,440
"225","949999","00201","TRANGIEAGRIC. RESEARCH STATION","AU","",-31.98,147.95,2150
"226","949999","00244","PROSPECTDAMSEE","AU","",-33.82,150.92,610
"227","949999","00268","WAGGAWAGGA EXPERIMENTAL FARM","AU","",-35.05,147.35,2192
"228","949999","00271","DENILIQUIN (FALKINERMEMORIA","AU","",-35.37,145.05,914
"229","949999","00276","DENILIQUINAMO","AU","",-35.53,144.97,960
"230","949999","00284","WALPEUP RESEARCH","AU","",-35.12,142,1070
"231","949999","00313","MORNINGTON POST OFFICE","AU","",-38.23,145.03,460
"232","949999","00341","ELLIOTT RESEARCH","AU","",-41.08,145.77,1520
"233","949999","00346","TEWKESBURY RESEARCH","AU","",-41.23,145.7,4600
"234","951210","99999","MIDDLE POINT AWS","AU","",-12.6,131.3,150
"235","953139","99999","SANDHILL","AU","",-22.78,119.62,4337
"236","953670","99999","MACKAY AERO","AU","",-21.167,149.183,60
"237","953700","99999","WILLIAMSON","AU","",-22.467,150.183,280
"238","956230","99999","JARRAHWOOD","AU","",-33.8,115.65,1300
"239","956770","99999","PARAFIELD AIRPORT","AU","",-34.783,138.633,170
"240","958509","99999","NEWBURY","AU","",-37.42,144.28,7681
"241","959120","99999","CHARLOTTE PASS (KOS","AU","",-36.433,148.333,17550
"242","959360","99999","GREEN CAPE (LGT-H)","AU","",-37.25,150.05,180
"243","959680","99999","POWRANNA","AU","",-41.683,147.283,1630
"244","960870","99999","BATAM/HANG NADIM","ID","",1.117,104.117,240
"245","965770","99999","SANGKULIRANG","ID","",1,118,2100
"246","968370","99999","SEMARANG","ID","",-6.967,110.417,30
"247","970080","99999","NAHA/TAHUNA","ID","",3.583,125.467,380
"248","975300","99999","MANOKWARI/RENDANI","ID","",-0.883,134.05,30
"249","976860","99999","WAMENA","ID","",-4.067,138.95,16600
"250","976980","99999","JAYAPURA/DOK II","ID","",-2.367,140.717,30
"251","977900","99999","NEIRA","ID","",-4.533,129.9,40
"252","983210","99999","STO. TOMAS","PH","",16.332,120.567,22560
"253","988150","99999","CAGAYAN DE TAWI-TAW","PH","",7,118.083,340
"254","990053","99999","ENVIRONM BUOY 41097","FR","",14.15,-61.017,0
"255","990063","99999","ENVIRON BUOY 52085","","",0,156,0
"256","990095","99999","ENVIRON BUOY 52077","","",2,147,0
"257","990097","99999","ENVIRON BUOY 52082","","",2,156,0
"258","990110","99999","ENVIRON BUOY 52088","","",-2,156,0
"259","990145","99999","ENVIRON BUOY 52320","","",7,137,0
"260","990181","99999","MOORED BUOY 46008","","",57.167,-151.7,100
"261","992100","99999","ENVIRONM BUOY 44019","US","",36.4,-75.2,30
"262","992310","99999","ENVIRONM BUOY 46062","US","",35.167,-121.017,0
"263","992450","99999","ENVIRONM BUOY 32301","US","",-10,-105,30
"264","992480","99999","ENVIRONM BUOY 46012","US","",37.4,-122.7,0
"265","993823","99999","NCVVS","","",NA,NA,NA
"266","994083","99999","N/W FLORIDA BAY","US","FL",25.083,-81.083,30
"267","994190","99999","DEVILS ISLAND","US","WI",47.083,-90.733,2110
"268","994860","99999","US NAVY TOWER R8","US","GA",31.633,-79.917,340
"269","995350","99999","PLATFORM NO. 44172","CN","",46.5,-48.4,NA
"270","995460","99999","ENVIRONM BUOY 41010","US","",28.95,-78.483,50
"271","995480","99999","ENVIRONM BUOY 44137","CN","",42.267,-62,30
"272","995770","99999","ENVIRONM BUOY 62414","UK","",53.833,2.917,0
"273","995890","99999","ENVIRONM BUOY 62051","UK","",53.5,-5.4,0
"274","996200","99999","ENVIRONM BUOY 62124","UK","",54.6,1.4,NA
"275","996770","99999","ENVIRONM BUOY 64045","UK","",59.1,-11.4,0
"276","997020","99999","ENVIRONM BUOY 44145","CN","",46.7,-48.7,0
"277","997207","99999","MOORED BUOY 46088","","",48.333,-123.167,30
"278","997215","99999","MOORED BUOY 43110","","",59.5,-1.5,0
"279","997222","99999","MOORED BUOY 52531","","",22,125,0
"280","997223","99999","MOORED BUOY 52535","","",22.367,-136.05,0
"281","997224","99999","MOORED BUOY 62092","","",51.2,-10.5,0
"282","997228","99999","MOORED BUOY 62168","","",53.417,2.917,0
"283","997240","99999","MOORED BUOY #30408","","",48.883,-136.1,0
"284","997264","99999","OSWEGO","US","NY",43.467,-76.5,870
"285","997266","99999","ROCK CUT","US","MI",46.267,-84.183,1890
"286","997283","99999","NEW LONDON","US","CT",41.35,-72.083,90
"287","997338","99999","CHICAGO","US","IL",42,-87.5,2020
"288","997340","99999","KENOSHA","US","WI",42.583,-87.8,1960
"289","997361","99999","EAGLE POINT","US","TX",29.483,-94.917,100
"290","997362","99999","FREEPORT","US","TX",28.95,-95.3,0
"291","997363","99999","GALVESTON PLEASURE","US","TX",29.283,-94.783,170
"292","997374","99999","MOORED BUOY 46089","","",45.883,-125.767,40
"293","997470","99999","MOORED BUOY 44729","","",46.4,-55.1,30
"294","997494","99999","MOORED BUOY 47506","","",83.7,-63.6,30
"295","997514","99999","DATA BUOY 13518","","",26.9,-66.3,30
"296","997537","99999","DATA BUOY 41927","","",24.9,-70.1,30
"297","997729","99999","GALVESTON BAY N JET","US","TX",29.35,-94.717,30
"298","997818","99999","DRIFTING BUOY 13601","","",NA,NA,NA
"299","997824","99999","DRIFTING BUOY 13640","","",NA,NA,NA
"300","997863","99999","DRIFTING BUOY 41978","","",NA,NA,NA
"301","997911","99999","DRIFTING BUOY 44903","","",NA,NA,NA
"302","997919","99999","DRIFTING BUOY 44922","","",NA,NA,NA
"303","997921","99999","DRIFTING BUOY 44923","","",NA,NA,NA
"304","997981","99999","FOLLY BEACH PIER","US","SC",32.65,-79.933,30
"305","997986","99999","DATA BUOY 41043","US","",20.983,-65.016,30
"306","997992","99999","APALACHICOLA RESERVE","US","FL",29.783,-84.883,50
"307","998005","99999","NORTH INLET-WINYAH B","US","SC",33.35,-79.183,40
"308","998194","99999","NEW CANAL","US","LA",30.017,-90.117,40
"309","998195","99999","NAWILIWILI","US","HI",21.95,-159.35,0
"310","999339","99999","GORDON","","",NA,NA,NA
"311","999359","99999","MERCY","","",NA,NA,NA
"312","999428","99999","CUSHING","","",NA,NA,NA
"313","999456","99999","GONZALEZ","","",NA,NA,NA
"314","999484","99999","KINGFISHER","","",NA,NA,NA
"315","999518","99999","PAUL HAMILTON","","",NA,NA,NA
"316","999540","99999","RUSHMORE","","",NA,NA,NA
"317","999550","99999","SHOUP","","",NA,NA,NA
"318","999999","03048","CRN NM SOCORRO 20 N","US","NM",34.356,-106.886,14774
"319","999999","03818","MARIANNA MUNICIPAL AP","US","FL",30.836,-85.184,344
"320","999999","03838","VANDALIA FAA AIRPORT","US","IL",38.983,-89.167,1631
"321","999999","03881","CENTREVILLE WSMO","US","AL",32.9,-87.25,1381
"322","999999","04133","HEBER CITY MUNI ARPT-RUSS MCDONALD FIELD","US","UT",40.482,-111.429,17182
"323","999999","04139","CRN NV DENIO 52 WSW","US","NV",41.848,-119.636,19812
"324","999999","12834","DAYTONA BEACH REGIONAL ARPT","US","FL",29.177,-81.06,125
"325","999999","13724","ATLANTIC CITY WBO","US","NJ",39.383,-74.433,34
"326","999999","13754","CHERRY POINT MCAS","US","NC",34.9,-76.883,88
"327","999999","13871","ANNISTON CALHOUN CO AP","US","AL",33.588,-85.858,1829
"328","999999","13958","AUSTIN MUELLER MUNICIPAL AP","US","TX",30.317,-97.767,2006
"329","999999","13993","ST JOSEPH WBO","US","MO",39.774,-94.907,2493
"330","999999","14607","CARIBOU MUNICIPAL ARPT","US","ME",46.867,-68.033,1902
"331","999999","14778","WILLIAMSPORT-LYCOMING COUNTY","US","PA",41.243,-76.922,1600
"332","999999","14813","AKRON FULTON INTERNATIONAL AP","US","OH",41.038,-81.464,3356
"333","999999","14842","PEORIA GREATER PEORIA AP","US","IL",40.668,-89.684,2018
"334","999999","14856","GROSSE ILE NAS","US","MI",42.1,-83.167,1801
"335","999999","14860","ERIE INTERNATIONAL AP","US","PA",42.08,-80.183,2246
"336","999999","14919","JAMESTOWN MUNICIPAL ARPT","US","ND",46.93,-98.678,4554
"337","999999","14926","ST CLOUD MUNICIPAL ARPT","US","MN",45.545,-94.052,3121
"338","999999","23173","LAS VEGAS WB AP","US","NV",36.233,-115.033,5739
"339","999999","23183","PHOENIX SKY HARBOR INTL AP","US","AZ",33.443,-111.99,3374
"340","999999","24030","SIDNEY MUNICIPAL AP","US","NE",41.101,-102.985,13125
"341","999999","24034","GLASGOW # 2","US","MT",48.183,-106.633,6370
"342","028740","99999","HAILUOTO","FI","",65.033,24.733,70
"343","029010","99999","MASSKAR","FI","",63.733,22.583,130
"344","030590","99999","INVERNESS/DALCROSS","UK","",57.533,-4.05,90
"345","030650","99999","CAIRNGORM","UK","",57.117,-3.633,12450
"346","031350","99999","PRESTWICK(CIV/NAVY)","UK","",55.5,-4.583,200
"347","032410","99999","LONG FRAMLINGTON","UK","",55.3,-1.8,1580
"348","032440","99999","","","",0,0,0
"349","033090","99999","YSPYTTY IFAN","UK","",53.033,-3.7,2620
"350","033170","99999","WOODVALE(RAF)","UK","",52.567,-3.05,110
"351","033380","99999","CELLARHEAD","UK","",53.033,-2.083,2280
"352","033850","99999","DONNA NOOK NO.2","UK","",53.483,0.083,110
"353","033880","99999","BINBROOK(RAF)","UK","",53.45,-0.2,1080
"354","034050","99999","ABERDARON","UK","",52.783,-4.733,940
"355","034820","99999","MARHAM","UK","",52.65,0.567,210
"356","035573","99999","CRANFIELD","UK","",52.067,-0.617,1090
"357","035831","99999","LAKENHEATH RAF","UK","",52.4,0.567,100
"358","036010","99999","","","",0,0,0
"359","036040","99999","MILFORD HAVEN","UK","",51.7,-5.05,320
"360","037070","99999","CHIVENOR","UK","",51.083,-4.15,60
"361","037860","99999","GRAVESEND","UK","",51.433,0.383,130
"362","038170","99999","ST. MAWGAN","UK","",50.433,-5,1030
"363","038570","99999","ISLE OF PORTLAND","UK","",50.517,-2.45,520
"364","038580","99999","PORTLAND HELIPORT","UK","",50.567,-2.45,30
"365","038880","99999","DUNGENESS","UK","",50.917,0.967,30
"366","038960","99999","ST. HELIER","UK","",49.2,-2.1,540
"367","039200","99999","HILLSBOROUGH","UK","",54.483,-6.1,380
"368","039230","99999","GLENANNE","UK","",54.233,-6.5,1600
"369","040260","99999","","","",0,0,0
"370","041030","99999","PATREKSFJORDUR","IL","",65.6,-24,40
"371","041540","99999","BURFELL","IL","",64.083,-19.733,2490
"372","042010","99999","QAANAAQ","GL","",77.467,-69.217,190
"373","043301","99999","DUNDAS","GL","",76.5,-69,200
"374","049999","00003","GISP2","GL","",72.58,-38.46,32050
"375","060590","99999","LYNGVIG","DN","",56.05,8.1,30
"376","060800","99999","ESBJERG","DN","",55.533,8.567,290
"377","061180","99999","SOENDERBORG","DN","",54.967,9.783,180
"378","062710","99999","STAVOREN HAVEN","NL","",52.883,5.35,30
"379","063000","99999","NOORDHINDER","NL","",51.65,2.567,30
"380","066190","99999","BULLET-LA-FRETAZ","SW","",46.833,6.583,12020
"381","066621","99999","GRENCHEN","SW","",47.183,7.417,4300
"382","067080","99999","ORON","SW","",46.567,6.867,8300
"383","067205","99999","SION","SW","",46.217,7.317,4820
"384","070590","99999","","","",0,0,0
"385","070720","99999","","","",0,0,0
"386","070881","34064","ETAIN","FR","",49.233,5.683,2371
"387","071070","99999","BRIGNOGAN","FR","",48.683,-4.333,180
"388","071233","99999","ST. BRIEUC ARMOR  &","FR","",48.517,-2.8,1280
"389","072450","99999","BLOIS","FR","",47.678,1.209,1210
"390","074120","99999","COGNAC","FR","",45.667,-0.317,310
"391","074850","99999","BOGUS FRENCH","FR","",0,0,0
"392","075000","99999","CAP FERRET","FR","",44.633,-1.25,100
"393","075910","99999","EMBRUN","FR","",44.567,6.5,8760
"394","076610","99999","CAP CEPET","FR","",43.083,5.933,1360
"395","076630","99999","PIERREFEN/NAVY","FR","",43.25,6.133,810
"396","076880","99999","LA GAROUPE","FR","",43.567,7.133,820
"397","080760","99999","BURGOS-IN-CASTILLA","SP","",42.333,-3.7,8540
"398","081120","99999","TALAR","SP","",42.2,0.867,8000
"399","081170","99999","LA MOLINA","SP","",42.333,1.933,17020
"400","081606","99999","ZARAGOZA (MIL/CIV)&","SP","",41.667,-1.033,2630
"401","082620","99999","SIERRA DE FUENTES","SP","",39.433,-6.283,6670
"402","083830","99999","HUELVA","SP","",37.283,-6.917,200
"403","085080","99999","LAJES/SANTA RITA (A","PO","",38.733,-27.067,1130
"404","085410","99999","SINES/MONTES CHAOS","PO","",37.95,-8.867,1030
"405","085450","99999","PORTO/PEDRAS RUBRAS","PO","",41.233,-8.683,770
"406","092490","99999","BOIZENBURG (AUT)  &","DD","",53.383,10.717,450
"407","420420","99999","SRINAGAR","IN","",33.983,74.783,16660
"408","420780","99999","MANDI","IN","",31.717,76.967,7610
"409","421430","99999","NAJIBABAD","IN","",29.617,78.383,2700
"410","421900","99999","PILIBHIT","IN","",28.633,79.8,1910
"411","426650","99999","SHAJAPUR","IN","",23.433,76.317,4460
"412","427050","99999","PURULIA","IN","",23.333,86.417,2550
"413","427400","99999","SURENDRANAGAR","IN","",22.733,71.6,740
"414","429200","99999","NASIK OZAR","IN","",20.133,73.917,6080
"415","429430","99999","YEOTMAL","IN","",20.4,78.15,4510
"416","430410","99999","JAGDALPUR","IN","",19.083,82.033,5530
"417","430870","99999","HANAMKONDA","IN","",18.017,79.567,2690
"418","431680","99999","MAHABUBNAGAR","IN","",16.75,78,5050
"419","011030","99999","LEKA","NO","",65.099,11.7,470
"420","432780","99999","NUMGAMBAKKAM","IN","",13.067,80.2,70
"421","433080","99999","MAHABALIPURAM","IN","",12.617,80.2,90
"422","011841","99999","","","",0,0,0
"423","012030","99999","KRAKENES","NO","",62.033,4.983,410
"424","012180","99999","TAFJORD","NO","",62.233,7.417,170
"425","012780","99999","VERDAL-REPPE","NO","",63.783,11.683,830
"426","013180","99999","SANDANE","NO","",61.783,6.183,510
"427","013380","99999","VANGSNES","NO","",61.167,6.65,510
"428","013610","99999","GROTLI III","NO","",62.017,7.667,8720
"429","013710","99999","LOKEN I VOLBU","NO","",61.117,9.067,5250
"430","442770","99999","ALTAI","MO","",46.4,96.25,21810
"431","443470","99999","TSOGT-OVOO","MO","",44.417,105.317,12980
"432","014390","99999","KONSMO-HOYLAND","NO","",58.25,7.317,2600
"433","014420","99999","BYGLANDSFJORD","NO","",58.667,7.8,2110
"434","450090","99999","TAI MO SHAN","CI","",22.417,114.117,9470
"435","466890","99999","MAZU (=588490)","TW","",26.167,119.933,910
"436","467530","99999","MOUNT ALISAN","TW","",23.517,120.8,24060
"437","467550","99999","MOUNT MORRISON","TW","",23.483,120.95,38500
"438","020770","99999","STOCKHOLM/BROMMA  &","SN","",59.35,17.95,150
"439","020860","99999","LAINIO","SN","",67.767,22.35,3250
"440","021040","99999","HEMAVAN","SN","",65.817,15.1,4730
"441","021540","99999","VIDSEL","SN","",65.883,20.15,1820
"442","022220","99999","GADDEDE","SN","",64.5,14.167,3300
"443","471260","99999","MANGILSAN","KO","",36.933,126.45,840
"444","471263","99999","BOGUS KOREAN","KO","",0,0,0
"445","022860","99999","UMEA","SN","",63.8,20.283,80
"446","471690","99999","HEUKSANDO","KO","",34.683,125.45,830
"447","023180","99999","TANDADALEN","SN","",61.167,13.017,8300
"448","023710","99999","BORLANGE (SWE-AFB)","SN","",60.433,15.5,1530
"449","023750","99999","ESKILSTUNA(SWE-AFB&","SN","",59.35,16.717,400
"450","024600","99999","STOCKHOLM/ARLANDA","SN","",59.617,17.95,610
"451","025010","99999","VADEROARNA","SN","",58.583,11.067,240
"452","025490","99999","TOMTABACKEN","SN","",57.5,14.467,3560
"453","025530","99999","KYMBO","SN","",58.083,13.767,2200
"454","025670","99999","LANDSORT","SN","",58.75,17.867,200
"455","025720","99999","NYKOPING/SKAVST AFB","SN","",58.783,16.917,420
"456","027710","99999","LEIVONMAKI SAVENAHO","FI","",61.883,26.1,1460
"457","027870","99999","ALAJARVI MOKSY","FI","",63.083,24.267,1700
"458","028210","99999","KITTILA SAMMALTUNTUR","FI","",67.967,24.117,5660
"459","092800","99999","NEUBRANDENBURG","DD","",53.6,13.317,790
"460","093930","99999","LINDENBERG        &","DD","",52.217,14.117,980
"461","100020","99999","BORKUMRIFF(LGT-VSL)","DL","",53.8,6.367,60
"462","101286","99999","WILHEIMSHAVEN","DL","",53.517,8.133,40
"463","101500","99999","DOERNICK","DL","",54.167,10.35,280
"464","101510","99999","DAHMESHOVED","DL","",54.2,11.1,80
"465","102730","99999","BASEPOHL","DL","",53.733,12.933,530
"466","103610","99999","MAGDEBURG","DL","",52.117,11.583,850
"467","103890","99999","BERLIN/ALEXANDERPLZ","DL","",52.517,13.417,840
"468","103950","99999","TROLLENBERG-BEESKOW","DL","",52.167,14.117,710
"469","104040","99999","KALKAR","DL","",51.733,6.267,430
"470","104810","99999","","","",0,0,0
"471","104820","99999","","","",0,0,0
"472","105280","99999","SIEGERLAND","DL","",50.717,8.083,6170
"473","105650","99999","OSTERFELD (AUT)","DL","",51.083,11.933,2630
"474","105820","99999","ZINNWALD/GEORGENFE","DL","",50.733,13.75,8820
"475","105970","99999","BOGUS GERMAN","DL","",0,0,0
"476","106325","99999","EGELSBACH","","",49.95,8.633,1170
"477","106350","99999","KLEINER FELDBERG","DL","",50.217,8.45,8050
"478","106770","99999","BAYREUTH","DL","",49.983,11.633,4980
"479","107100","99999","","","",0,0,0
"480","107750","99999","HOHENFELS","DL","",49.217,11.833,4420
"481","108051","99999","BADEN OOS","","",48.783,8.183,1230
"482","108100","99999","","","",0,0,0
"483","108360","99999","STOETTEN","DL","",48.667,9.867,7340
"484","111450","99999","BAD GASTEIN","OS","",47.117,13.133,11000
"485","111530","99999","MONDSEE","OS","",47.85,13.367,4910
"486","111910","99999","","","",0,0,0
"487","111920","99999","KLEINZICKEN","OS","",47.2,16.332,2670
"488","112190","99999","NEUMARKTER SATTEL","OS","",47.117,14.4,11250
"489","112630","99999","WEISSENSEE/GATSCHAC","OS","",46.717,13.283,9540
"490","117100","99999","LUKA","CZ","",49.65,16.95,5180
"491","118550","99999","NITRA","CZ","",48.283,18.133,1360
"492","119180","99999","LIESEK","CZ","",49.367,19.683,6930
"493","121240","99999","DARLOWEK","PL","",54.4,16.35,50
"494","474870","99999","NEW CHITOSE AIRPORT","JP","",42.783,141.7,240
"495","475670","99999","KASUMINOME AB","JP","",38.233,140.917,100
"496","476020","99999","AIKAWA","JP","",38.033,138.233,170
"497","476345","99999","NAGOYA A","JP","",34.85,136.8,50
"498","476410","99999","CHICHIBU","JP","",35.983,139.067,2340
"499","476420","99999","YOKOTA (JASDF/USAF)","JP","",35.75,139.35,1390
"500","476580","99999","SHIZUHAMA AB","JP","",34.817,138.3,100
"501","476741","99999","AMAKUSA","JP","",32.482,130.15,1040
"502","477370","99999","MIYAKEJIMA AIRPORT","JP","",34.05,139.55,230
"503","477490","99999","MAIZURU AB","JP","",35.483,135.383,90
"504","477640","43324","IWAKUNI","JP","",34.15,132.233,30
"505","478000","99999","IZUHARA","JP","",34.2,129.3,190
"506","478580","99999","IKI AIRPORT","JP","",33.75,129.782,160
"507","479100","99999","TOKUNOSHIMA ISLAND","JP","",27.833,128.883,50
"508","479280","99999","KUMEJIMA AIRPORT","JP","",26.367,126.717,100
"509","480530","99999","MEIKTILA","BM","",20.833,95.833,2200
"510","483300","99999","PHRAE","TH","",18.167,100.167,1620
"511","483330","99999","NAN AGROMET","TH","",18.867,100.75,2640
"512","483816","99999","MOUNG KHOM","TH","",14.8,100.617,760
"513","483840","99999","THA PHRA AGROMET","TH","",16.332,102.817,1660
"514","483860","99999","PICHIT AGROMET","TH","",16.433,100.283,380
"515","484020","99999","CHAINAT AGROMET","TH","",15.15,100.183,170
"516","485500","99999","KO SAMUI","TH","",9.467,100.05,70
"517","485710","99999","KHO HONG AGROMET","TH","",7,100.5,100
"518","485740","99999","SA-DAO","TH","",6.8,100.4,250
"519","486250","99999","IPOH","MS","",4.567,101.1,400
"520","488675","99999","CAMP RADCLIFF/ANKHE","VS","",13.983,108.65,7710
"521","509450","99999","TA-AN","CI","",45.5,124.3,0
"522","510530","99999","KABA HE","CI","",48.05,86.35,5340
"523","512430","99999","KARAMAY","CI","",45.6,84.85,4280
"524","516280","99999","WEN-SU","CI","",41.267,80.233,12860
"525","523510","99999","...","EZ","",0,0,0
"526","122850","99999","OSTROLEKA","PL","",53.083,21.567,970
"527","125750","99999","TARNOW","PL","",50.033,20.983,2090
"528","126915","99999","SLUPSK            &","PL","",54.467,17.017,0
"529","128310","99999","DOBOGOKO","HU","",47.7,18.883,6760
"530","128470","99999","TAT","HU","",47.75,18.6,1090
"531","128605","99999","BALATON","HU","",46.683,17.15,1240
"532","130230","99999","CELJE","LJ","",46.25,15.25,2440
"533","131510","99999","BOGUS YUGOSLAVIAN","YG","",0,0,0
"534","132080","99999","PULA","BK","",44.867,13.85,320
"535","132570","99999","TUZLA","YG","",44.55,18.7,2390
"536","133400","99999","LIVNO","YG","",43.833,17.017,7240
"537","134900","99999","RESERVED FOR NAVY","**","",NA,NA,NA
"538","135880","99999","SKOPJE-ZAJCEV RID","YG","",42.017,21.4,3010
"539","136220","99999","VLORE","AB","",40.467,19.483,50
"540","150200","99999","BOTOSANI","RO","",47.733,26.65,1620
"541","150230","99999","SUCEAVA","RO","",47.633,26.25,3500
"542","150320","99999","RODNEI MOUNTAIN RNG","RO","",47.617,24.65,23050
"543","150900","99999","IASI","RO","",47.167,27.633,1040
"544","151400","99999","STEIU","RO","",46.533,22.45,5000
"545","152080","99999","ALBA IULIA","RO","",46.067,23.567,2470
"546","153950","99999","DRAGASANI","RO","",44.667,24.283,2820
"547","154080","99999","CORUGEA","RO","",44.733,28.333,2200
"548","154120","99999","BACLES","RO","",44.483,23.117,3130
"549","155490","99999","RAZGRAD","BU","",43.517,26.533,3470
"550","161470","99999","FORLI","IY","",44.2,12.067,320
"551","161490","99999","RIMINI","IY","",44.033,12.617,130
"552","526850","99999","","","",0,0,0
"553","527530","99999","BOGUS CHINESE","CI","",37.683,100.7,0
"554","527870","99999","WUSHAOLING","CI","",37.2,102.867,30440
"555","529400","99999","APPROX. LOCATION","CI","",35.5,99.333,0
"556","530680","99999","ERENHOT","CI","",43.65,112,9660
"557","535770","99999","BOGUS CHINESE","CI","",39.133,112.3,0
"558","538660","99999","BOGUS CHINESE","CI","",36.567,111.75,0
"559","540410","99999","KAITONG/TONGYU","CI","",44.8,123.083,1520
"560","542740","99999","HUI-NAN-ZHEN","CI","",42.617,126.267,0
"561","544760","99999","TA-MIAO-KOU","CH","",40.35,122.75,0
"562","546800","99999","BOGUS CHINESE","CI","",0,0,0
"563","548300","99999","LIN-ZI","CI","",36.867,118.333,550
"564","549060","99999","HEZE/CAOZHOU","CI","",35.25,115.433,510
"565","555850","99999","BOGUS CHINESE","CI","",NA,NA,NA
"566","561520","99999","SERTAR","CI","",32.283,100.333,38960
"567","564940","99999","PING-SHAN","CI","",28.617,104.117,0
"568","566520","99999","BOGUS CHINESE","CI","",0,0,0
"569","569890","99999","HE-KOU","CI","",22.5,103.95,1380
"570","571370","99999","SHI-QUAN","CI","",33.05,108.25,0
"571","572060","99999","GUANG-YUAN","CI","",32.433,105.8,4870
"572","573070","99999","","","",0,0,0
"573","574320","99999","WANXIAN","CI","",30.8,108.35,2990
"574","575620","99999","SHI-MEN","CI","",29.583,111.3,910
"575","575850","99999","SIBIU","RO","",45.783,0,4368
"576","575880","99999","ORADSIA","RO","",47.05,0,1250
"577","577660","99999","SHAOYANG","CI","",27.233,111.467,2480
"578","577740","99999","SHUANG-FENG","CI","",27.45,112.2,9160
"579","578060","99999","ANSHUN","CI","",26.267,105.967,14020
"580","579580","99999","NAME UNKNOWN","CI","",25.317,110.55,0
"581","583780","99999","","","",0,0,0
"582","584240","99999","ANQING","CI","",30.533,117.05,200
"583","162430","99999","LATINA","IY","",41.55,12.9,260
"584","162490","99999","CAPE CIRCEO","IY","",41.217,13.05,30
"585","162580","99999","MONTE S. ANGELO","IY","",41.7,15.95,8440
"586","163160","99999","LATRONICO","IY","",40.083,16.017,8960
"587","164390","99999","SIGONELLA SICILY NAF 555","IT","",37.4,14.917,219
"588","164590","99999","CATANIA/SIGONELLA","IY","",37.4,14.917,220
"589","164900","99999","LAMPEDUSA","IY","",35.5,12.6,200
"590","165635","99999","LAMEZIA TERME","IY","",38.917,16.233,120
"591","165640","99999","CAPO CARBONARA","IY","",39.1,9.517,1180
"592","165650","99999","CAPO CARBONARA","IY","",39.1,9.517,1180
"593","166900","99999","PLATANOS","GR","",38.6,21.783,8510
"594","167330","99999","","","",0,0,0
"595","167493","99999","MARITSA","GR","",36.383,28.1,620
"596","170290","99999","SAMSUN/MEYDAN","TU","",41.283,36.333,1680
"597","171150","99999","BANDIRMA","TU","",40.317,27.967,420
"598","172340","99999","AYDIN","TU","",37.85,27.85,560
"599","172550","99999","KAHRAMANMARAS","TU","",37.6,36.933,5720
"600","173020","99999","ANTALYA-BOLGE","TU","",36.867,30.7,470
"601","173200","99999","ANAMUR","TU","",36.083,32.833,40
"602","199330","99999","RESOLUTE BAY NWT","CA","",74.683,-93.083,171
"603","201460","99999","OSTROV VILCHEKA","UA","",79.917,58.917,0
"604","202150","99999","LE BOURGET","FR","",48.95,2.433,460
"605","202250","99999","PAU","FR","",43.367,0.4,1899
"606","202330","99999","MONTELIMA","FR","",44.583,4.717,750
"607","206740","99999","OSTROV DIKSON","RA","",73.5,80.4,470
"608","209210","99999","BOGUS SOVIET","RA","",49.783,4.633,1561
"609","214350","99999","TEMPA BAY","RA","",75.75,137.583,100
"610","226860","99999","VENDINGA","RS","",63.45,47.917,800
"611","228260","99999","BESOV NOS (CAPE)","RS","",61.667,36.067,430
"612","228330","99999","KOLODOZERO","RS","",61.783,37.75,1160
"613","229960","99999","OBJACEVO","RS","",60.367,49.65,1520
"614","230200","99999","JUGORSKI STRAIT","RA","",69.75,60.583,130
"615","232200","99999","ZELEZNODOROZNY","RA","",67.833,64.75,1160
"616","233380","99999","POLUY","RA","",66.267,67.867,380
"617","234430","99999","PRAVAJA HETTA","RA","",65.867,74.5,540
"618","236040","99999","PEGISHDOR","RA","",63.433,50.55,1370
"619","236290","99999","IGRIM","RA","",63.2,64.483,280
"620","586260","99999","SHANGRAO","CI","",28.483,117.983,900
"621","586530","99999","KUOCANG SHAN","CI","",28.817,120.917,13710
"622","589320","99999","NAME UNKNOWN (ONC)","CI","",25.783,118.383,0
"623","590720","99999","LAINZHOU","CI","",24.8,112.367,980
"624","590960","99999","LIANPING","CI","",24.367,114.483,2140
"625","591170","99999","MEI XIAN","CI","",24.3,116.117,840
"626","592280","99999","LONG'AN","CI","",23.133,107.65,4570
"627","595600","99999","CHIN HONG","CI","",22.8,121.167,370
"628","596630","99999","YANGJIANG","CI","",21.867,111.967,220
"629","601060","99999","CHEFCHAOUEN","MC","",35.067,-5.3,3050
"630","602300","99999","MARRAKECH","MC","",31.617,-8.032,4660
"631","602500","99999","AGADIR","MC","",30.383,-9.567,230
"632","602520","99999","AGADIR AL MASSIRA","MC","",30.317,-9.4,230
"633","602890","99999","TARFAYA","MC","",27.933,-13,100
"634","604210","99999","OUM EL BOUAGHI","AL","",35.867,7.117,8910
"635","605110","99999","TIARET","AL","",35.35,1.467,9890
"636","605810","99999","HASSI-MESSAOUD","AL","",31.667,6.15,1410
"637","606050","99999","OUTAT OULAD EL HAZ","MO","",33.35,-2.317,8001
"638","606400","99999","ILLIZI","AL","",26.5,8.417,5420
"639","606900","99999","IN-GUEZZAM","AL","",19.567,5.767,4010
"640","607140","99999","BIZERTE","TS","",37.25,9.8,30
"641","607500","99999","SFAX EL-MAOU","TS","",34.717,10.683,230
"642","610450","99999","GOURE","NR","",13.983,10.3,4600
"643","614990","99999","AIOUN EL ATROUSS","MT","",16.7,-9.6,2230
"644","619980","99999","PORT-AUX-FRANCAIS","FR","",-49.3,70.2,300
"645","623661","99999","MARSA ALAM INTL","EG","",25.55,34.583,770
"646","625780","99999","MOORED BUOY","","",28.2,-15.1,NA
"647","627720","99999","AROMA","SU","",13.167,32.667,3810
"648","629410","99999","JUBA","SU","",4.867,31.6,4570
"649","633310","99999","GONDAR","ET","",12.55,37.417,19670
"650","238380","99999","BECAME STN 238281","RA","",61.05,68.633,280
"651","239230","99999","SUPRA","RA","",60.867,64.9,810
"652","243430","99999","ZHIGANSK","RA","",66.767,123.4,920
"653","248580","99999","SINSKOYE","RA","",61.133,126.8,1220
"654","248710","99999","OHOTSKY PEREVOZ","RA","",61.867,135.533,1400
"655","249340","99999","NYUYA-IN-YAKUT","RA","",60.533,116.233,1680
"656","256770","99999","BERINGOVSKAJA","RA","",63.05,179.317,820
"657","259640","99999","TOPATA-OLYUTORSKAYA","RA","",60.55,171.083,120
"658","260600","99999","LOMONOSOV","RS","",59.917,29.767,20
"659","261190","99999","METSKULA ESTONIA","EN","",58.567,22.533,0
"660","261340","99999","KUUSIKU","BY","",58.967,24.733,520
"661","261410","99999","VALKE-MAARJA","BY","",59.133,26.233,1230
"662","262100","99999","","","",0,0,0
"663","266200","99999","DOTNUVA","BY","",55.4,23.867,790
"664","266990","99999","","","",0,0,0
"665","267320","99999","VILNIUS","BY","",54.633,25.283,1960
"666","269870","99999","KLINTSI-IN-BRYANSK","RS","",52.733,32.233,1700
"667","269970","99999","TRUBCEVSK","RS","",52.583,33.767,1780
"668","273330","99999","KOSTROMA","RS","",57.733,40.783,1260
"669","274280","99999","ALEKSANDROV","RS","",56.4,38.75,1850
"670","274410","99999","SUJA","RS","",56.85,41.4,980
"671","275020","99999","VOLOKOLAMSK","RS","",56.017,35.933,1980
"672","275950","99999","KAZAN'","RS","",55.6,49.283,1160
"673","282550","99999","TURINSK","RA","",58.05,63.683,710
"674","282640","99999","TAVDA","RA","",58.05,65.266,620
"675","283330","99999","VISIM","RA","",57.65,59.5,3140
"676","283670","99999","TJUMEN","RA","",57.117,65.433,1040
"677","284690","99999","VAGAJ","RA","",56.483,67.3,1310
"678","285660","99999","MOKROUSOVO","RA","",55.817,66.783,1150
"679","285740","99999","BERDYUZHYE","RA","",55.8,68.317,1290
"680","286330","99999","TAGANAJ GORA (MTN)","RA","",55.367,59.917,11020
"681","286730","99999","ILINSKOYE-IN-TYUMEN","RA","",55.45,69.317,920
"682","288430","99999","KOMSOMOLEC","RA","",53.75,62.067,1870
"683","289780","99999","BALKASINO","RA","",52.533,68.75,3990
"684","289860","99999","ZOLOTAJA NIVA","RA","",52.967,71.933,1960
"685","292530","99999","LOSINOBORSKOE","RA","",58.433,89.367,1370
"686","637403","99999","NAIROBI/DAGORETTI","KN","",-1.3,36.75,17980
"687","640770","99999","BUNIA-RUAMPARA","ZR","",1.567,30.217,12850
"688","642760","99999","KONGOLO","ZR","",-5.35,27,5610
"689","643800","99999","KAMEMBE","RW","",-2.467,28.917,15910
"690","649310","99999","BATOURI","CM","",4.467,14.367,6560
"691","650460","99999","KANO","NI","",12.05,8.533,4810
"692","652000","99999","ISEYEN","NI","",7.967,3.6,3000
"693","652015","99999","MAIDUGURI","NI","",11.85,13.083,3350
"694","652020","99999","LAGOS/OSHODI","NI","",6.55,3.35,190
"695","653350","99999","SAVE","BJ","",8.032,2.467,2000
"696","654080","99999","TAKORACI GHANA","GH","",4.883,-0.233,88
"697","654370","99999","KETE-KRACHI","GH","",7.817,-0.033,1220
"698","654670","99999","TAKORADI","GH","",4.883,-1.767,90
"699","655390","99999","FERKESSEDOUGOU","IV","",9.6,-5.2,3230
"700","655620","99999","DIMBOKRO","IV","",6.65,-4.7,920
"701","655940","99999","SAN PEDRO","IV","",4.75,-6.65,300
"702","655990","99999","SASSANDRA","IV","",4.95,-6.083,660
"703","656850","99999","","","",0,0,0
"704","662850","99999","LUENA (LUSO)","AN","",-11.783,19.917,13290
"705","672210","99999","MARRUPA","MZ","",-13.733,37.55,8380
"706","672250","99999","FURANCUNGO","MZ","",-14.917,33.617,12620
"707","672614","99999","TETE CHINGODZI","MZ","",-16.1,33.633,1600
"708","673270","99999","PANDA-INHAMBANE","MZ","",-24.05,34.05,1500
"709","673460","99999","CHANGALANE","MZ","",-26.283,32.183,1040
"710","675830","99999","LUNDAZI","ZB","",-12.283,33.2,11430
"711","678890","99999","WYANGA","ZW","",-18.283,32.75,18800
"712","679950","99999","BOGUS ZIMBABWEAN","ZW","",0,0,0
"713","680151","99999","KARASBURG","NM","",-28,18.75,10170
"714","680153","99999","SESFONTEIN","NM","",-19.133,13.6,5640
"715","680560","99999","SELIBE-PHIKWE","BC","",-22.05,27.817,9390
"716","681120","99999","HOSEA KUTAKO INTL A","NM","",-22.483,17.467,17000
"717","681551","99999","ESHOWE","ZA","",-28.883,31.45,4870
"718","682730","99999","WITBANK","ZA","",-25.833,29.183,15500
"719","682902","99999","HEIDELBERG","ZA","",-26.517,28.367,15600
"720","683210","99999","SWARTKOPS AFB","ZA","",-25.817,29.167,14570
"721","683630","99999","SPRINGS","ZA","",-26.2,28.45,15880
"722","684520","99999","MOKHOTLONG","LS","",-29.267,29.133,21950
"723","685360","99999","DE AAR","ZA","",-30.65,24.017,12470
"724","686240","99999","FRASERBURG","ZA","",-31.917,21.517,12680
"725","686480","99999","QUEENSTOWN","ZA","",-31.9,26.867,10860
"726","686510","99999","ELLIOT","ZA","",-31.333,27.85,14630
"727","295420","99999","YAYA-IN-KEMEROVO","RA","",56.2,86.4,1390
"728","295720","99999","EMELJANOVO","RA","",56.183,92.617,2060
"729","295940","99999","TAJSHET","RA","",55.95,98,3070
"730","296750","99999","KOLBA","RA","",55.083,93.367,4770
"731","297590","99999","KOMMUNAR","RA","",54.333,89.283,8470
"732","298380","99999","BARNAUL","RA","",53.433,83.517,1840
"733","301390","99999","PUSHCHINA","RA","",58.183,109.333,2400
"734","301980","99999","SUON-TIT","RA","",58.067,123.717,4050
"735","302520","99999","MAMAKAN","","AL",57.817,114.167,2490
"736","303720","99999","CHARA","RA","",56.9,118.267,7110
"737","304550","99999","UAKIT","RA","",55.467,113.617,10970
"738","305040","99999","TULUN","RA","",54.6,100.633,5220
"739","307270","99999","BOLSOJE-GOLOUSTNOJ","RA","",52.033,105.4,4610
"740","307660","99999","CHERNYSHEVSK","RA","",52.533,117,5390
"741","307680","99999","NERCINSK","RA","",52,116.533,4820
"742","308030","99999","BAGO-GORHON","RA","",51.7,102.45,8890
"743","309350","99999","KRASNYJ CHIKOJ","RA","",50.367,108.75,7710
"744","310970","99999","USKI","RA","",59.183,146.333,170
"745","313289","99999","IGNATYEVO","RA","",50.417,127.4,1940
"746","313380","99999","SELEMDZA","RA","",53.133,133.967,6820
"747","317250","99999","SMIDOVICH","RA","",48.617,133.833,520
"748","317270","99999","NADEZHDINSKOYE","RA","",48.3,133.2,530
"749","318020","99999","BOGUS SOVIET","RA","",0,0,0
"750","319210","99999","ASTRAHANKA","RA","",44.717,132.067,780
"751","320530","99999","NOGLIKI","RA","",51.917,143.133,340
"752","321360","99999","STAR ODUBSKOE","RA","",47.417,142.817,700
"753","325380","99999","...","RS","",53.1,157.65,0
"754","325400","99999","PETROPAVLOVSK-KAMCH","RA","",53.083,158.583,840
"755","330190","99999","PINSK","BY","",52.117,26.117,1420
"756","333770","99999","LUBNY","UR","",50,33.017,1580
"757","334870","99999","CHERKASY","UR","",49.417,32.049,1070
"758","335980","99999","NOVOMIRGOROD","UR","",48.783,31.633,1460
"759","336150","99999","KREMENCUG","UR","",49.033,33.433,800
"760","336460","99999","BOGUS SOVIET","UR","",48.067,24.183,0
"761","336470","99999","RAKHOV","UR","",48.05,24.3,5760
"762","337440","99999","FALESTI","","",47.583,27.7,1620
"763","337490","99999","BRAVICEA","","",47.367,28.433,780
"764","338388","99999","BALTI","","",47.833,27.783,2310
"765","339730","99999","VLADISLAVOVKA","UR","",45.167,35.383,370
"766","342400","99999","URJUPINSK","RS","",50.8,42,1100
"767","342530","99999","ELAN","RS","",50.95,43.733,1320
"768","343630","99999","KAMYSIN","RS","",50.067,45.367,1190
"769","688450","99999","BIRD ISLAND","ZA","",-33.833,26.283,30
"770","688470","99999","PORT ALFRED","ZA","",-33.6,26.883,370
"771","689250","99999","ELGIN EXP FARM","ZA","",34.133,19.017,3050
"772","690070","93217","FRITZSCHE AAF","US","CA",36.683,-121.767,430
"773","691194","99999","AL ASAD AFLD","IQ","NC",33.783,42.433,1880
"774","692314","99999","AL TAJI","IQ","",33.517,44.25,360
"775","692344","99999","","","",0,0,0
"776","692834","99999","SHEPPARD AFB","US","TX",33.967,-98.483,3140
"777","693374","99999","","","",0,0,0
"778","694064","99999","MULE CREEK","CN","BC",59.783,-136.583,8840
"779","696364","99999","","","",0,0,0
"780","696494","99999","CAMP TORKHAM","AH","",34.133,71.067,6800
"781","696594","99999","","","",0,0,0
"782","696944","99999","","","",0,0,0
"783","697014","99999","","","",0,0,0
"784","697214","99999","","","",0,0,0
"785","697314","99999","","","",0,0,0
"786","697614","99999","","","",0,0,0
"787","697654","99999","AL SAHRA","IQ","",34.667,43.533,1390
"788","699144","99999","AMARILLO RADAR STN","US","TX",35.25,-101.65,11000
"789","700639","99999","HAPPY VALLEY(SAWRS)","US","AK",69.15,-148.817,2860
"790","701740","26533","BETTLES FIELD","US","AK",66.916,-151.509,1960
"791","701975","99999","EAGLE","US","AK",64.783,-141.167,2680
"792","702075","26644","ANVIK AIRPORT","US","AK",62.65,-160.183,268
"793","702312","26519","FAREWELL FAA AP","US","AK",62.517,-153.883,4581
"794","702697","99999","NEW STUYAHOK","US","AK",59.45,-157.333,920
"795","344210","99999","SVATOVE","UR","",49.417,38.167,890
"796","344450","99999","BOKOVSKAJA","RS","",49.217,41.833,910
"797","344990","99999","NOVAJA KAZANKA","RS","",48.95,49.6,-20
"798","345150","99999","KRASNOARMEJSK","UR","",48.267,37.15,1750
"799","345780","99999","CERNYJ JAR","RS","",48.067,46.117,50
"800","348250","99999","KANEVSKAJA","RS","",46.067,38.967,170
"801","348770","99999","ADYK","RS","",45.8,45.633,-110
"802","348940","99999","ZELENGA","RS","",46.183,48.6,0
"803","349240","99999","SLAVJANSK-NA-KUBANI","RS","",45.283,38.117,90
"804","349490","99999","STAVROPOL","RS","",45.117,42.083,4520
"805","352290","99999","AKTOBE","RA","",50.283,57.15,2190
"806","353630","99999","ARKALYK","RA","",50.217,66.833,3430
"807","353943","99999","OKHA","RA","",53.617,142.95,370
"808","357460","99999","ARALSKOE MORE","RA","",46.783,61.65,620
"809","366650","99999","ZAJSAN","RA","",47.467,84.917,6030
"810","367140","99999","BURLYU-TYUBE /BURLIU-TOBE","RS","",46.583,79.1,3511
"811","370580","99999","GEORGIEVSK","RS","",44.15,43.467,3020
"812","371160","99999","KARATCHAEVSK","RS","",43.783,41.9,8620
"813","371690","99999","BABAYURT","RS","",43.6,46.767,-30
"814","371775","99999","KOPITNARI","","",42.183,42.483,680
"815","371930","99999","TEBERDA","RS","",43.45,41.733,13250
"816","372090","99999","VERKHNAYA BALKARIYA","RS","",43.05,42.717,14410
"817","375020","99999","SAYIRME","RS","",41.917,42.75,9100
"818","376900","99999","TCAHKAHOVIT","RS","",40.633,44.233,21010
"819","377610","99999","KHALADZH","RS","",40.917,49.05,0
"820","379010","99999","KHOJAVAND","RS","",39.783,47.1,3990
"821","379120","99999","JAFARKHAN","RS","",39.933,48.533,-150
"822","379130","99999","SALYAN","RS","",39.583,48.967,-210
"823","381413","99999","KHUDZHAND","RA","",40.217,69.683,4420
"824","382070","99999","CHAYAN","RA","",43.033,69.367,3650
"825","383450","99999","TALAS","RA","",42.517,72.217,12180
"826","383580","99999","SUSAMYR","RA","",42.15,73.983,20920
"827","385420","99999","DZHINGIR-BENT","RS","",40.767,62.017,0
"828","385450","99999","DARGANATA","RA","",40.467,62.283,1420
"829","385670","99999","NAVOI","RA","",40.133,65.349,3410
"830","386180","99999","FERGANA","RA","",40.367,71.75,5770
"831","386880","99999","BOGUS SOVIET","RA","",0,0,0
"832","388480","99999","","","",0,0,0
"833","388950","99999","BAJRAMALY","RA","",37.6,62.183,2400
"834","389870","99999","GYSHGY","RA","",35.283,62.35,6250
"835","400170","99999","EDLEB","SY","",35.933,36.617,4510
"836","400690","99999","EMPERICH","GM","",51.833,6.267,55
"837","401010","99999","HOUCHE-AL-OUMARA","LB","",33.817,35.85,9200
"838","401540","99999","HAIFA/U. MICHAELI","IS","",32.817,35,50
"839","401750","99999","ACHMER /BRAMSCHE","GM","",52.367,7.933,165
"840","401770","99999","TEL AVIV /PORT","IS","",32.1,34.783,110
"841","401790","99999","BET DAGAN","IS","",32,34.817,350
"842","703330","99999","PORT HEIDEN","US","AK",56.95,-158.617,290
"843","703605","25604","PLATINUM","US","AK",59.011,-161.82,46
"844","703894","99999","KLAWOCK","US","AK",55.583,-133.083,150
"845","703920","25317","CRAIG","US","AK",55.483,-133.15,40
"846","710358","99999","DELINE","CN","NT",65.2,-123.433,2180
"847","710359","99999","LAC MEMPHREMAGOC","CN","QB",45.267,-72.167,2090
"848","710364","99999","L'ARTIFICE","CN","QB",45.067,-73.817,610
"849","710430","99999","NORMAN WELLS ARPT","CN","NT",65.283,-126.8,730
"850","710513","27201","SACHS HARBOUR ARPT","CN","",72,-125.283,860
"851","710613","99999","PORT RADIUM       &","CN","",66.1,-117.933,2130
"852","711060","99999","TOFINO AIRPORT","CN","",49.083,-125.767,241
"853","711131","99999","WHISTLER ALTA LAKE&","CN","",50.133,-122.95,6580
"854","711228","99999","BOW VALLEY (AUTOB)","CN","",51.083,-115.067,12980
"855","711294","99999","KINDERSLEY ARPT   &","CN","",51.467,-109.167,6830
"856","711390","99999","CYPRESS HILLS PARK","CN","SA",49.65,-109.517,12710
"857","711420","99999","HUNTERS POINT MARIN","CN","MN",53.033,-100.933,2560
"858","711550","99999","EDMONTON INTERNATIO","CN","AB",53.3,-113.6,7150
"859","711855","99999","FEROLLE PT. (MAPS)","CN","NF",51.017,-57.1,80
"860","711990","99999","WATSON LAKE AUT","CN","YK",60.117,-128.817,6900
"861","712024","99999","RACE ROCKS","CN","",48.3,-123.533,50
"862","712030","99999","KELOWNA APT","CN","BC",49.95,-119.367,4300
"863","712150","99999","OSOYOOS CS","CN","BC",49.033,-119.433,2830
"864","712250","99999","FOREMOST AGDM","CN","AB",49.483,-111.483,8810
"865","712410","99999","HIGHVALE","CN","AB",53.45,-114.467,7470
"866","712750","99999","ST PAUL","CN","AB",54,-111.267,6490
"867","712890","99999","STETTLER","CN","AB",52.35,-112.6,7950
"868","713440","99999","HUSSAR AGDM","CN","AB",51.183,-112.5,9710
"869","713710","99999","SAINT HUBERT ARPT","CN","QB",45.517,-73.417,270
"870","713720","99999","L'ACADIE","CN","QB",45.3,-73.35,450
"871","713980","99999","TRURO","CN","NS",45.367,-63.267,400
"872","714040","99999","EGG ISLAND","CN","AB",58.967,-110.417,2150
"873","714283","99999","CAP CHAT (MAPS)   &","CN","",49.083,-66.733,350
"874","714330","99999","CARIBOU ISLAND","CN","ON",47.333,-85.833,1870
"875","715120","99999","LONGUE POINTE DE MI","CN","ON",50.267,-64.233,110
"876","716000","99999","SABLE ISLAND","CN","NS",43.933,-60,40
"877","716260","99999","MCGILL RADAR","CN","QB",45.417,-73.933,630
"878","403930","99999","ALIEY","GM","",49.75,8.117,552
"879","404375","99999","KING KHALID MIL CTY","SD","",27.9,45.533,4120
"880","404440","99999","FRIEDRICHSHAFEN","GM","",47.667,9.5,1219
"881","405600","99999","ACHERN","GM","",48.533,8.083,448
"882","405860","99999","JAHRA","KW","",29.317,47.667,560
"883","406020","99999","RABIAH","IQ","",36.8,42.1,3820
"884","406070","99999","WITTENBERG","GM","",51.85,12.65,201
"885","406780","99999","BOGUS IRAQI","IQ","",0,0,0
"886","407270","99999","SAGHEZ","IR","",36.25,46.267,15230
"887","407280","99999","ROTH/KILIANSDORF/","GM","",49.25,11.1,1173
"888","407460","99999","NEU ULM","GM","",48.383,10.033,1439
"889","407630","99999","KASHMAR","IR","",35.2,58.467,11090
"890","407840","99999","FREIN","GM","",47.867,12.35,1622
"891","407940","99999","SAFI-ABAD DEZFUL","IR","",32.267,48.417,830
"892","408062","99999","QALA-E-NAW AG","AH","",34.97,63.1,9230
"893","408970","99999","KONARAK","IR","",25.433,60.367,100
"894","409019","99999","FOLOL VILLAGE AG","AH","",36.22,69.23,45480
"895","409054","99999","TALUQAN AG","AH","",36.91,69.47,7790
"896","409250","99999","QAISAR","AH","",35.667,64.266,13000
"897","409378","99999","YAKAWLANG AG","AH","",34.73,66.97,25830
"898","409460","99999","PAN JAO","AH","",34.383,67.033,27100
"899","409540","99999","JALALABAD","AH","",34.433,70.467,5530
"900","409700","99999","GARDIZ","AH","",33.617,69.233,23500
"901","413150","99999","QAIROON HAIRITI","OM","",17.25,54.083,8780
"902","415730","99999","MURREE","PK","",33.917,73.383,21270
"903","415925","99999","SUKKUR","PK","",27.722,68.792,580
"904","417380","99999","TURBAT NEW","PK","",26.017,63.067,1540
"905","419160","99999","FARIDPUR","BW","",23.617,89.85,140
"906","419780","99999","CHITTAGONG (PATENGA","BW","",22.267,91.817,40
"907","716316","99999","GODERICH (AUTO8)","CN","",43.767,-81.7,2130
"908","716321","99999","","","",0,0,0
"909","716690","99999","PEKISKO","CN","AB",50.367,-114.417,13410
"910","716940","99999","BEATRICE CLIMATE","CN","ON",45.133,-79.4,2970
"911","717010","99999","GAGETOWN AIRPORT","CN","NB",45.833,-66.433,510
"912","717174","99999","CHATHAM (AUTO8)","CN","NB",47,-65.467,340
"913","717780","99999","RACE ROCKS CAMPBELL","CN","BC",48.3,-123.533,30
"914","718184","99999","CARTWRIGHT (MAN)","CN","NF",53.683,-57.033,120
"915","718233","99999","LA GRANDE IV READAC","CN","QB",53.75,-73.683,3070
"916","718264","99999","PANGNIRTUNG","CN","",53.2,-70.9,5370
"917","718331","99999","","","",0,0,0
"918","718441","99999","CAPE PARRY","CN","NT",70.1,-124.717,870
"919","718550","99999","DAUPHIN AIRPORT","CN","MN",51.1,-100.05,3040
"920","718754","99999","PINCHER CREEK (AUT)","CN","",49.5,-113.95,11540
"921","718755","99999","PINCHER CREEK","CN","AB",49.517,-114,11900
"922","718790","99999","EDMONTON MUNICIPAL","CN","AB",53.567,-113.517,6710
"923","718904","99999","SISTERS IL AUTO8  &","CN","",49.483,-124.433,0
"924","718944","99999","ESTEVAN POINT (MAN)","CN","",49.383,-126.533,50
"925","719000","99999","HOPEDALE","CN","NF",55.45,-60.217,100
"926","719076","99999","AKULIVIK AIRPORT","CN","",60.817,-78.15,90
"927","719170","99999","EUREKA","CN","NU",79.983,-85.933,100
"928","719221","99999","","","",0,0,0
"929","719455","99999","LONG POND","CN","NF",47.517,-52.967,130
"930","719490","99999","FARO","CN","YK",62.233,-133.35,7170
"931","719523","99999","LUCY ISL (LGT-H)","CN","",54.3,-130.6,270
"932","719644","99999","FARO A","CN","",62.217,-133.367,7170
"933","720137","99999","MORRIS AIRPORT","US","IL",41.433,-88.417,1780
"934","720148","99999","EAST CAM 345(AWS)","US","TX",28.083,-92.7,0
"935","720151","03049","ALPINE AIRPORT","US","TX",30.384,-103.684,13152
"936","720194","99999","KILAUEA POINT/LIGHT","US","HI",22.233,-159.4,570
"937","720201","99999","HERMISTON","US","OR",45.833,-119.267,1950
"938","720209","99999","REXBURG","US","ID",43.833,-111.8,14800
"939","720258","04997","MCGREGOR","US","MN",46.619,-93.31,3743
"940","720269","12982","FALFURIAS","US","TX",27.207,-98.121,341
"941","720274","93799","WHITEVILLE","US","NC",34.273,-78.701,299
"942","720282","99999","KILL DEVIL HILLS","US","NC",36.017,-75.667,40
"943","720283","99999","PRESTON","US","MN",43.683,-92.183,3890
"944","999999","24233","SEATTLE SEATTLE-TACOMA ARPT","US","WA",47.461,-122.314,1323
"945","999999","25379","CRN AK SITKA 1 NE","US","AK",57.057,-135.327,238
"946","999999","35034","LAKENHEATH RAF","UK","",52.4,0.567,101
"947","999999","40309","KOROR WSO","KA","PC",7.333,134.483,332
"948","999999","63828","CRN GA NEWTON 8 W","US","GA",31.313,-84.471,536
"949","999999","67601","LITTLE AMERICA","AY","",-78.2,-162.25,320
"950","999999","93037","COLORADO SPRINGS PETERSON FIE","US","CO",38.812,-104.711,18806
"951","999999","93901","DALLAS HENSLEY FIELD NAS","US","TX",32.733,-96.967,1509
"952","999999","94074","CRN CO NUNN 7 NNE","US","CO",40.807,-104.755,16429
"953","999999","94144","IDAHO FALLS 42 NW WB","US","ID",43.833,-112.683,14609
"954","999999","94931","HIBBING CHISHOLM-HIBBING AP","US","MN",47.387,-92.839,4136
"955","999999","99999","","","",0,0,0
"956","720320","53981","CELBURNE","US","TX",32.354,-97.434,2603
"957","720326","04981","VINTON","US","IA",42.219,-92.018,2576
"958","720328","99999","BUCKHANNON","US","WV",39,-80.267,4980
"959","720396","99999","T P MC CAMPBELL","US","TX",27.917,-97.217,50
"960","720473","99999","CHILLICOTHE MUNI","US","MO",39.783,-93.5,2390
"961","720486","99999","PIEDMONT MUNI","US","MO",37.133,-90.717,1420
"962","720495","99999","SUMMIT AIRPORT MIDDL","US","DE",39.517,-75.717,210
"963","720499","99999","HAMPTON ROADS EXECUT","US","VA",36.783,-76.45,70
"964","720589","99999","SHAWANO","US","WI",44.783,-88.55,2480
"965","720591","99999","CAMP PEARY LANDING S","US","VA",37.3,-76.633,110
"966","720602","99999","BARNWELL CO","US","SC",33.25,-81.383,750
"967","720615","99999","COLUMBIA","US","CA",38.033,-120.417,6460
"968","720624","99999","MADISON MUNI","US","SD",44.017,-97.083,5240
"969","722011","92813","ORLANDO/KISSIMMEE","US","FL",28.29,-81.434,250
"970","722018","99999","MARIANNA","US","FL",30.833,-85.183,340
"971","722023","99999","MIAMI (NEXRAD)","US","FL",25.617,-80.417,340
"972","722075","04871","DE KALB/AIRPORT","US","IL",41.932,-88.701,2789
"973","722079","53888","LEXINGTON/DAVIDSON","US","NC",35.781,-80.3,0
"974","722103","99999","ST LUCIE CO INTL","US","FL",27.483,-80.367,70
"975","722107","99999","SEMINOLE GAINES COU","US","TX",32.667,-102.65,10100
"976","722112","99999","GILMER FOX STEPHENS","US","TX",32.7,-94.95,1270
"977","722127","99999","GREATER KANKAKEE","US","NY",41.067,-87.833,1970
"978","722134","63822","VIDALIA MUNI ARPT","US","GA",32.193,-82.367,835
"979","722148","99999","ALBEMARLE","US","NC",35.417,-80.15,1860
"980","722171","99999","PONTIAC AIRPORT","US","IL",40.917,-88.633,2010
"981","722175","13860","WARNER ROBINS AFB","US","GA",32.64,-83.592,899
"982","722188","99999","SEARCY","US","AR",35.217,-91.733,810
"983","722201","99999","SANFORD","US","NC",35.583,-79.1,750
"984","722202","12985","GARNER FLD","US","TX",29.211,-99.744,2871
"985","722207","99999","BOULDER(WFO)","US","CO",40,-105.267,17500
"986","722223","13899","PENSACOLA REGIONAL AP","US","FL",30.473,-87.188,360
"987","722237","99999","PASCAGOULA (CGS)","US","MS",30.367,-88.567,80
"988","722239","53861","LOWE AHP/FT. RUCKER","US","AL",31.356,-85.751,744
"989","722287","13871","ANNISTON MUNICIPAL A","US","AL",33.588,-85.858,1829
"990","722354","13927","HAWKINS FIELD AIRPORT","US","MS",32.335,-90.223,1042
"991","722368","99999","THOMAS P STAFFORD","US","OK",35.55,-98.667,4890
"992","722425","99999","GALVESTON (CGS)","US","TX",29.333,-94.767,10
"993","722499","99999","NACOGDOCHES (AWOS)","US","TX",31.583,-94.717,1080
"994","722503","99999","VERMILLION","US","LA",28.583,-92.467,0
"995","722517","12932","ALICE INTL AP","US","TX",27.741,-98.027,549
"996","722525","12920","LAREDO AIR FORCE BASE","US","TX",27.533,-99.467,1524
"997","722535","12909","SAN ANTONIO KELLY FIELD AFB","US","TX",29.384,-98.581,2106
"998","722543","99999","HOUSTONSUGAR LAND","US","TX",29.617,-95.65,250
"999","722553","99999","BRENHAM","US","TX",30.217,-96.367,940
"1000","722595","13911","FORT WORTH NAS","US","TX",32.769,-97.441,1981
"1001","722620","23055","PINE SPRINGS GUADALUPE MOUNTA","US","TX",31.831,-104.809,16630
"1002","722648","99999","ODESSA-SCHLEMEYER F","US","TX",31.917,-102.383,9020
"1003","722695","99999","LAS CRUCES INTL","US","NM",32.283,-106.917,13930
"1004","722720","93063","SILVER CITY GRANT CO","US","NM",32.636,-108.151,16599
"1005","722746","99999","SAFFORD MUNICIPAL","US","AZ",32.85,-109.633,9680
"1006","722791","99999","YUMA(NEXRAD)","US","AZ",32.5,-114.65,530
"1007","722903","99999","SAN DIEGO/MONTGOMER","US","CA",32.817,-117.133,1290
"1008","722904","03178","SAN DIEGO/BROWN FLD","US","CA",32.572,-116.979,1597
"1009","722925","93117","SAN CLEMENTE IS NAAS","US","CA",33.023,-118.588,555
"1010","723108","99999","LUMBERTON","US","NC",34.6,-79.067,380
"1011","723114","03715","LOUISA","US","VA",38.01,-77.967,1503
"1012","723171","99999","EDWARDS N BASE","US","CA",34.983,-117.867,7010
"1013","723306","99999","COLUMBUS AFB","US","MS",33.65,-88.45,680
"1014","723520","13902","ALTUS AFB","US","OK",34.658,-99.267,4212
"1015","723534","99999","OK CITY NEXRAD","US","OK",35.333,-97.283,3380
"1016","723575","03950","LAWTON-FORT SILL RGNL ARPT","US","OK",34.568,-98.416,3377
"1017","723865","99999","NELLIS AFB","US","NV",36.233,-115.033,5730
"1018","724014","93714","DINWIDDIE CO","US","VA",37.184,-77.501,2905
"1019","724049","99999","SMITH PT/SUNNYBANK","US","VA",37.883,-76.183,10
"1020","724127","99999","LEWISBURG/GREENBRIE","US","WV",37.867,-80.4,7020
"1021","724177","13734","MARTINSBURG EASTERN WV REG AP","US","WV",39.402,-77.984,1628
"1022","724294","53844","LANCASTERFAIRFIEL","US","OH",39.756,-82.657,2649
"1023","724365","53896","HUNTINGBURG","US","IN",38.249,-86.95,1612
"1024","724370","99999","TERRE HAUTE HULMAN REGIONAL A","US","IN",39.45,-87.3,1753
"1025","000020","99999","ISFJORD RADIO SPITZBERGEN","NO","",78.067,13.633,79
"1026","009360","99999","GARDERMDEN","NO","",60.2,11.083,1838
"1027","010040","99999","NY-ALESUND II","NO","",78.917,11.933,80
"1028","010071","99999","","","",0,0,0
"1029","724490","99999","ST JOSEPH/ROSECRANS","US","MO",39.767,-94.917,2469
"1030","724564","99999","TOPEKA (NEXRAD)","US","KS",39,-96.233,4310
"1031","724836","23208","MCCLELLAN AFB","US","CA",38.667,-121.4,250
"1032","724851","99999","","US","",0,0,0
"1033","724935","99999","HAYWARD AIR TERM","US","CA",37.667,-122.117,140
"1034","724941","99999","POCATELLO(NEXRAD)","US","ID",43.1,-112.683,13640
"1035","725057","99999","BRANT POINT (CGS)","US","MA",41.283,-70.083,80
"1036","725124","99999","BUTLER CO. (AWOS)","US","PA",40.783,-79.95,3800
"1037","725293","99999","GARRETT CO","US","MD",39.583,-79.333,8940
"1038","725300","94846","CHICAGO OHARE INTL AP","US","IL",41.986,-87.914,2054
"1039","725305","94892","W. CHICAGO/DU PAGE","US","IL",41.914,-88.246,2310
"1040","725317","53802","MATTOON/CHARLESTON","US","IL",39.478,-88.28,2198
"1041","725404","99999","ADRIAN","US","MI",41.867,-84.083,2440
"1042","725490","94933","FORT DODGE (AWOS)","US","IA",42.611,-94.295,3527
"1043","725512","99999","YORK","US","NE",40.9,-97.617,5090
"1044","725524","99999","ORD/SHARP FIELD","US","NE",41.617,-98.95,6310
"1045","725525","99999","HASTINGS MUNICIPAL","US","NE",40.6,-98.433,5960
"1046","725646","99999","30 MI W CHEYENNE","US","WY",41.15,-105.4,25430
"1047","725660","24028","SCOTTSBLUFF W B HEILIG FIELD","US","NE",41.874,-103.595,12064
"1048","725686","94057","DOUGLAS","US","WY",42.797,-105.386,15024
"1049","725780","24156","POCATELLO REGIONAL AP","US","ID",42.92,-112.571,13649
"1050","725788","99999","MC CALL","US","ID",44.883,-116.1,15310
"1051","725827","94190","WILDHORSE RES/ELKO","US","NV",41.666,-115.784,19020
"1052","725864","99999","MCCALL ARPT","US","ID",44.883,-116.1,15300
"1053","725891","99999","LAKEVIEW","US","OR",42.183,-120.35,14550
"1054","726000","99999","SABLE ISLAND      &","CN","",43.933,-60.017,20
"1055","726025","99999","WESTERN HEAD (MARS)","CN","",44.633,-63.5,510
"1056","726080","99999","EASTPORT","US","ME",44.917,-67,259
"1057","726090","99999","SAINT JOHN AIRPORT","CN","",45.317,-65.883,930
"1058","726437","99999","MCCOY (USA-AF)","US","WI",43.967,-90.733,2560
"1059","726453","99999","NEENAH","US","WI",44.217,-88.55,2750
"1060","726458","04824","STURGEON BAY","US","WI",44.844,-87.417,2207
"1061","726503","54833","WISCONSIN DELLS","US","WI",43.522,-89.771,2975
"1062","726539","99999","FAITH","US","SD",45.033,-102.017,7870
"1063","726562","04943","AIRLAKE ARPT","US","MN",44.628,-93.218,2926
"1064","726567","04980","NEW ULM MUNI (AWOS)","US","MN",44.319,-94.5,3082
"1065","726577","94974","MINNEAPOLIS/BLAINE","US","MN",45.145,-93.201,2780
"1066","726579","99999","FLYING CLOUD","US","MN",44.817,-93.45,2830
"1067","726588","04956","WINONA MUNI (AWOS)","US","MN",44.077,-91.701,1999
"1068","726605","99999","SPEARFISH/CLYDE ICE","US","SD",44.483,-103.783,11880
"1069","726667","24048","SOUTH BIG HORN CO","US","WY",44.517,-108.082,11988
"1070","726777","94055","BAKER MUNI ARPT","US","MT",46.358,-104.25,9056
"1071","726824","04112","STANLEY","US","ID",44.171,-114.927,19797
"1072","726838","94185","BURNS MUNICIPAL ARPT","US","OR",43.592,-118.954,12710
"1073","727000","99999","FREDERICTON AIRPORT","CN","",45.867,-66.533,200
"1074","727010","99999","GAGETOWN  (CAN-MIL)","CN","",45.833,-66.433,510
"1075","727075","99999","INVERNESS (MARS)","CN","",46.233,-61.3,410
"1076","727100","99999","","US","",0,0,0
"1077","727447","99999","EAGLE HARBOR (CGLS)","US","MI",47.467,-88.167,1860
"1078","727449","99999","MOOSE LAKE CO ARPT","US","MN",46.417,-92.8,3280
"1079","727505","04929","FOSSTON(AWOS)","US","MN",47.593,-95.768,3880
"1080","727508","99999","PINE RIVER","US","MN",46.717,-94.383,3950
"1081","727576","14916","GRAND FORKS INTERNATIONAL AP","US","ND",47.949,-97.176,2536
"1082","727584","99999","HETTINGER","US","ND",46.017,-102.65,8240
"1083","727670","94014","WILLISTON SLOULIN INTL AP","US","ND",48.195,-103.642,5806
"1084","727815","24237","STAMPEDE PASS","US","WA",47.293,-121.337,12091
"1085","727850","24157","SPOKANE INTERNATIONAL AP","US","WA",47.621,-117.528,7209
"1086","727857","99999","PULLMAN/MOSCOW RGNL","US","WA",46.75,-117.117,7780
"1087","727885","99999","WILLIAM R FAIRCHILD","US","WA",48.117,-123.5,910
"1088","728775","99999","GOLDEN ARPT","CN","",51.3,-116.967,7870
"1089","729480","27202","CAPE PARRY AIRPORT","CN","",70.167,-124.683,170
"1090","740001","54793","SUSSEX","US","NJ",41.2,-74.623,1283
"1091","740620","99999","BERNARD HARBOUR","CN","",65.483,-110.367,4510
"1092","740740","99999","ISACHSEN (MAPS)","CN","",78.783,-103.533,270
"1093","740770","99999","BUFFALO NARROWS AUT","CN","",55.85,-108.467,4210
"1094","741940","99999","BUGEO","CN","",47.617,-57.617,110
"1095","744214","99999","MARION MUNICIPAL","US","IN",40.483,-85.683,2620
"1096","744800","99999","VERONA(USAF)","US","NY",43.133,-75.6,1350
"1097","744915","14775","WESTFIELD BARNES MUNI AP","US","MA",42.158,-72.716,826
"1098","746120","93104","CHINA LAKE NAF","US","CA",35.683,-117.683,6959
"1099","747340","99999","WHITE SANDS MISSILE","US","NM",32.633,-106.4,12040
"1100","747900","13849","SUMTER SHAW AFB","US","SC",33.973,-80.473,738
"1101","747916","99999","GEORGETOWN (CGLS)","US","SC",33.217,-79.183,80
"1102","747960","12804","AVON PARK GUNNERY RANGE","US","FL",27.65,-81.333,201
"1103","749007","99999","HOLME","UK","",53.8,-0.75,40
"1104","749017","99999","GATESVILLE TEXAS","US","TX",31.366,-97.716,2330
"1105","749057","99999","VICTORIA TEXAS/ALOE AAF","US","TX",28.766,-97.116,340
"1106","749076","99999","JEFFERSON/PROVING GRDS AAF IN","US","IN",38.833,-85.416,2680
"1107","749081","99999","AUGUSTA/DANIEL FIELD GA","US","GA",33.466,-82.033,1340
"1108","749110","99999","BRUNING NEBRASKA AAF","US","NE",40.333,-97.416,4710
"1109","749167","99999","TUCSON ARIZONA/MARANA AAF","US","AZ",32.516,-111.316,5750
"1110","749195","99999","TRUTCH BRITISH COLUMBIA","CN","",57.75,-122.9,8570
"1111","749289","99999","EL DJEM TUNISIA","TS","",35.333,10.666,0
"1112","749298","99999","PRESENZANO ITALY","IY","",41.366,14.066,1980
"1113","749314","99999","HILL 35 VIETNAM CWT","VS","",15.616,108.399,350
"1114","749371","99999","CHOKHYON-DONG KOREA/TEAM 820","KO","",38.033,127.366,1590
"1115","749380","99999","HWACHON KOREA/TEAM 832","KO","",38.166,127.666,1630
"1116","749399","99999","IGARAPE ASSU  BRAZIL","BZ","",-1.066,-47.616,570
"1117","749443","99999","JACKY JACKY AUSTRALIA/HIGGINS","AU","",-10.933,142.483,140
"1118","749511","99999","FLORENCE/MU 1/MU 4/MU 10","IY","",43.766,11.25,670
"1119","749521","99999","SAN SEVERO ITALY","IY","",41.7,15.433,500
"1120","749524","99999","SAIPAN MARIANA ISl/KAGMAN NAS","MY","",15.166,145.783,720
"1121","749536","99999","AMENDOLA ITALY/MU 9","IY","",41.716,15.366,380
"1122","763050","99999","LORETO","MX","",26.017,-111.333,70
"1123","764990","99999","SOTO LA MARINA","MX","",23.767,-98.2,210
"1124","765700","99999","ISLA LOBOS","MX","",21.467,-97.2,50
"1125","765930","99999","PROGRESO","MX","",21.3,-89.65,20
"1126","766127","99999","TAJIN","MX","",20.6,-97.45,1510
"1127","766493","99999","COZUMEL INTL","MX","",20.517,-86.917,90
"1128","766546","99999","LICENCIADO Y GEN IG","MX","",19.383,-102.033,16030
"1129","766700","99999","FES CUAUTITLAN","MX","",19.683,-99.183,22510
"1130","766855","99999","PUEBLA","MX","",19.033,-98.217,21660
"1131","766953","99999","CAMPECHE/IGNACIO  &","MX","",19.85,-90.533,250
"1132","767130","99999","CUIDAD DEL CARMEN","MX","",18.633,-91.833,20
"1133","767410","99999","COATZACOALCOS","MX","",18.133,-94.417,220
"1134","767473","99999","CIUDAD DEL CARMEN","MX","",18.65,-91.783,30
"1135","768556","99999","PUERTO ESCONDIDO","MX","",15.867,-97.083,900
"1136","769045","99999","TAPACHULA INTL ARPT","MX","",14.8,-92.367,290
"1137","780950","99999","CLARENCE TOWN","BA","",23.1,-74.967,90
"1138","783320","99999","COLON MATANZAS","CU","",22.683,-80.933,350
"1139","783335","99999","BLACKBURNE/PLYMOUTH","MF","",16.75,-62.167,120
"1140","783350","99999","AGUADA DE PASAJEROS","CU","",22.383,-80.85,270
"1141","783570","99999","LAS TUNAS/VICTORIA","CU","",20.95,-76.95,1060
"1142","783620","99999","LA JIQUIMA HOLGUIN","CU","",20.933,-76.533,1050
"1143","783830","99999","GRAND CAYMAN","GC","",19.25,-81.417,60
"1144","783880","99999","MONTEGO BAY/SANGSTE","JM","",18.5,-77.917,80
"1145","785204","99999","","","",NA,NA,NA
"1146","785450","99999","HAM BLUFF LIGHT SAI","VI","",17.767,-64.882,210
"1147","785830","99999","BELIZE/PHILLIP GOLD","BH","",17.533,-88.3,50
"1148","787030","99999","ROATAN","HO","",16.317,-86.517,20
"1149","787970","99999","TRIPOLIS","LE","",34.45,0,46
"1150","788010","99999","FT SHERMAN (ROCOB)","PM","",9.333,-79.983,520
"1151","804230","99999","GUIRIA","VN","",10.583,-62.317,140
"1152","821450","99999","TRACUATEUA (BRAGANC","BZ","",-1.083,-46.933,360
"1153","822630","99999","CAMETA","BZ","",-2.25,-49.5,240
"1154","824100","99999","BENJAMIN CONSTANT","BZ","",-4.383,-70.033,650
"1155","825880","99999","MORADA NOVA","BZ","",-5.083,-38.383,440
"1156","826100","99999","EIRUNEPE","BZ","",-6.667,-69.867,1880
"1157","827650","99999","CAROLINA","BZ","",-7.333,-47.467,1930
"1158","827800","99999","PICOS","BZ","",-7.067,-41.483,2230
"1159","829860","99999","PAULO AFONSO","BZ","",-9.4,-38.217,2690
"1160","830630","99999","PORTO NACIONAL (AER","BZ","",-10.7,-48.4,2650
"1161","830960","99999","ARACAJU","BZ","",-10.917,-37.05,50
"1162","834830","99999","PIRAPORA","BZ","",-17.333,-44.95,5050
"1163","835360","99999","CURVELO","BZ","",-18.767,-44.433,6160
"1164","835920","99999","CARATINGA","BZ","",-19.8,-42.15,6090
"1165","836300","99999","FRANCA","BZ","",-20.55,-47.433,10260
"1166","838130","99999","CASTRO","BZ","",-24.783,-50,10090
"1167","838930","99999","","","",0,0,0
"1168","839700","99999","MOSTARDAS","BZ","",-31.25,-50.9,50
"1169","844000","99999","PAITA","PR","",-5.117,-81.117,270
"1170","845720","99999","PARAMONGA","PR","",-10.667,-77.833,460
"1171","846320","99999","LAS PALMAS(PAFB)","PR","",-12.167,-77,760
"1172","855850","99999","JUAN FERNANDEZ","CH","",-33.617,-78.817,300
"1173","857420","99999","TENUCO","CI","",-38.25,-71.417,1140
"1174","857430","99999","TEMUCO","CH","",-38.75,-72.633,1140
"1175","858890","99999","CABO RAPER (FL)","CH","",-46.833,-75.583,400
"1176","859070","99999","PUERTO EDEN","CH","",-49.133,-74.45,60
"1177","862200","99999","CAACUPE","PY","",-25.4,-57.1,2280
"1178","864400","99999","MELO","UY","",-32.366,-54.183,1000
"1179","870520","99999","ROSARIO DE LA FRO &","AG","",-25.783,-64.983,7790
"1180","871290","99999","SANTIAGO DEL ESTERO","AG","",-27.767,-64.3,2000
"1181","872130","99999","CHILECITO AERO","AG","",-29.233,-67.433,9450
"1182","874980","99999","MAZARUCA","AG","",-33.583,-59.267,40
"1183","875090","99999","SAN RAFAEL AERO","AG","",-34.583,-68.4,7530
"1184","875500","99999","NUEVE DE JULIO","AG","",-35.45,-60.883,760
"1185","875720","99999","MARIANO MORENO(AAFB)","AG","",-34.567,-58.783,280
"1186","879090","99999","SAN JULIAN AERO","AG","",-49.317,-67.75,580
"1187","879250","99999","RIO GALLEGOS AERO","AG","",-51.617,-69.283,190
"1188","888780","99999","PEBBLE ISLAND","FK","",-51.317,-59.6,160
"1189","890570","99999","BASE ARTURO PRAT","AY","",-62.5,-59.683,50
"1190","890590","99999","BERNARDO O'HIGGINS","AY","",-63.317,-57.9,100
"1191","892580","99999","FILCHNER","AY","",-77.083,-51.217,200
"1192","892660","99999","BUTLER ISLAND","AY","",-72.206,-60.17,2050
"1193","895860","99999","PRINCESS ELIZABETH","AY","",-69.133,86,20780
"1194","895920","99999","MIRNYJ","AY","",-66.55,93.017,300
"1195","895980","99999","AGO-4","AY","",-82.017,96.767,35650
"1196","898150","99999","CASEY HAUPT NUNATAK","AY","",-66.583,110.7,810
"1197","911610","99999","KOKEE","US","HI",22.15,-159.65,12800
"1198","911907","99999","HANA","US","HI",20.783,-156.017,240
"1199","912834","99999","KAILUA HEIGHTS","US","HI",19.6,-155.967,0
"1200","917230","99999","NUKUNONU","NZ","",-9.2,-171.9,30
"1201","917590","99999","FALEOLO AIRPORT","ZM","",-13.817,-172,50
"1202","917840","99999","HAAPAI","TO","",-19.8,-174.35,30
"1203","918400","99999","MAUKE ISLAND","KU","",-20.133,-157.35,90
"1204","920147","99999","GOROKA","NG","",-6.083,145.383,16100
"1205","920710","99999","UVOL","NG","",-6.167,150.95,30
"1206","920770","99999","GURNEY W.O.","NG","",-10.317,150.333,230
"1207","931870","99999","TE PUKE EDR","NZ","",-37.817,176.317,910
"1208","932450","99999","TAUPO AWS","NZ","",-38.733,176.067,4010
"1209","933210","99999","","","",0,0,0
"1210","940060","99999","KOINAMBE","NG","",-5.483,144.6,8840
"1211","941420","99999","MANINGRIDA","AU","",-12.05,134.217,160
"1212","941713","99999","WEIPA AIRPORT","AU","",-12.683,141.917,230
"1213","942110","99999","MOUNT BARNETT MOUNT","AU","",-16.417,126.1,5470
"1214","942160","99999","KUNUNURRA AERO","AU","",-15.783,128.717,440
"1215","942979","99999","CAPE CLEVELAND LIGHT HOUSE","AU","",-19.18,147.02,576
"1216","943940","99999","CATO ISLAND","AU","",-23.25,155.533,70
"1217","944110","99999","MULLEWA","AU","",-28.533,115.517,2680
"1218","945210","99999","SURAT","AU","",-27.15,149.067,2460
"1219","945480","99999","BAROON POCKET DAM","AU","",-26.717,152.867,2300
"1220","946830","99999","KUITPO FOREST RESER","AU","",-35.167,138.667,3650
"1221","946860","99999","FOWLERS GAP AWS","AU","",-31.083,141.7,1810
"1222","947030","99999","BOURKE AIRPORT AWS","AU","",-30.033,145.95,1080
"1223","947120","99999","YOUNG AIRPORT","AU","",-34.25,148.25,3810
"1224","947360","99999","PROSPECT DAM","AU","",-33.817,150.917,610
"1225","947430","99999","MOUNT BOYCE","AU","",-33.617,150.267,10800
"1226","947610","99999","BARRABA","AU","",-30.383,150.617,5000
"1227","947620","99999","HOLSWORTHY CONTROL","AU","",-33.983,150.917,4070
"1228","948180","99999","CAPE NORTHUMBERLAND","AU","",-38.05,140.667,60
"1229","949870","99999","FRIENDLY BEACHES","AU","",-42,148.283,560
"1230","949999","00033","NORTHAMPTON (NOKANENA)","AU","",-28.35,114.58,1500
"1231","949999","00092","LEIGH CREEK SOUTHAERO","AU","",-30.6,138.43,2590
"1232","949999","00093","FOWLERS BAY","AU","",-31.98,132.45,49
"1233","949999","00104","ALTHORPE ISLAND LIGHT HOUSE","AU","",-35.37,136.87,890
"1234","949999","00145","MAREEBAQWRC","AU","",-17,145.43,3350
"1235","949999","00167","NORTH REEF LIGHT HOUSE","AU","",-23.18,151.9,30
"1236","949999","00237","CANOWINDRA POST OFFICE","AU","",-33.57,148.67,3000
"1237","949999","00264","TEMORA EXPERIMENTAL FARM","AU","",-34.42,147.53,2920
"1238","949999","00331","ARARAT POST OFFICE","AU","",-37.28,142.95,3322
"1239","949999","00351","FORTHSIDE AGRICULTURAL RESEARCH STATION","AU","",-41.2,146.27,1300
"1240","952910","99999","INGHAM COMPOSITE","AU","",-18.65,146.183,120
"1241","952950","99999","AYR DPI RESEARCH ST","AU","",-19.617,147.383,120
"1242","956080","99999","MEDINA RESEARCH CEN","AU","",-32.217,115.8,140
"1243","956140","99999","KARNET","AU","",-32.433,116.067,2860
"1244","956310","99999","GOOMALLING","AU","",-31.3,116.833,2390
"1245","956760","99999","EDINBURGH RAAF","AU","",-34.7,138.617,200
"1246","957230","99999","YASS LINTON HOSTEL","AU","",-34.833,148.917,5200
"1247","957620","99999","TAMWORTH AIRPORT AW","AU","",-31.067,150.833,3960
"1248","957660","99999","SYDNEY HARBOUR WEDD","AU","",-33.833,151.267,50
"1249","957670","99999","LAKE MACQUARIE AWS","AU","",-33.083,151.467,60
"1250","958170","99999","PENOLA","AU","",-37.483,140.817,650
"1251","958430","99999","STRATHBOGIE","AU","",-36.85,145.733,5020
"1252","961470","99999","RANAI","ID","",3.95,108.383,20
"1253","965290","99999","TANJUNG REDEP/KALIM","ID","",2.117,117.45,260
"1254","969250","99999","SANGKAPURA (BAWEAN","ID","",-5.85,112.633,30
"1255","970860","99999","LUWUK/BUBUNG","ID","",-0.9,122.783,20
"1256","971800","99999","UJUNG PANDANG/HASAN","ID","",-5.067,119.55,140
"1257","973960","99999","DILI KOTA","ID","",-8.533,126.567,NA
"1258","977895","99999","","","",0,0,0
"1259","982320","99999","APARRI","PH","",18.367,121.633,30
"1260","983230","99999","NAULA POINT","PH","",15.7,119.967,50
"1261","984440","99999","LEGASPI","PH","",13.133,123.733,170
"1262","986480","99999","MAASIN","PH","",10.133,124.833,720
"1263","987540","99999","DAVAO","PH","",7.067,125.6,190
"1264","987560","99999","SURIGAO DEL SUR","PH","",9.217,126.317,30
"1265","990123","99999","ENVIRON BUOY 52073","","",5,137,0
"1266","990133","99999","ENVIRON BUOY 51014","","",-5,-140,0
"1267","990185","99999","MOORED BUOY 51026","","",21.667,-157,30
"1268","992090","99999","ENVIRONM BUOY 45001","US","",48,-87.6,30
"1269","992330","99999","ENVIRONM BUOY 42009","US","",29.3,-87.5,100
"1270","993184","99999","SHIP BLOCK 18","","",NA,NA,NA
"1271","993524","99999","SHIP BLOCK 52","","",NA,NA,NA
"1272","993802","99999","SHIP","","",NA,NA,NA
"1273","993812","99999","","","",NA,NA,NA
"1274","993822","99999","NBXRS","","",NA,NA,NA
"1275","993827","99999","NMEGS","","",NA,NA,NA
"1276","994009","99999","ANCLOTE GULF PARK","US","FL",28.183,-82.783,60
"1277","994018","99999","LA JOLLA","US","CA",32.867,-117.25,20
"1278","994290","99999","GRAND ISLE","US","LA",29.267,-89.95,100
"1279","994330","99999","SHEBOYGAN","US","WI",43.75,-87.683,1890
"1280","994390","99999","SETTLEMENT POINT","BA","FL",26.683,-79,30
"1281","994890","99999","BRIDGEPORT TERMINAL","US","CT",41.167,-73.183,160
"1282","995100","99999","PLATFORM NO. 62147","","",58,1.1,0
"1283","995140","99999","PLATFORM NO. 62121","UK","",53.6,2.8,0
"1284","995270","99999","PLATFORM NO. 63104","UK","",61.2,1.6,300
"1285","995961","99999","PRINCE EDWARD PT","CN","ON",43.78,-76.87,30
"1286","995990","99999","PORT STANLEY","CN","ON",42.783,-81.367,30
"1287","996300","99999","ENVIRONM BUOY 44014","US","",36.6,-74.833,0
"1288","996450","99999","ENVIRONM BUOY 63118","UK","",58.9,-7.5,NA
"1289","996720","99999","ENVIRONM BUOY 44143","CN","",45.9,-50,NA
"1290","997202","99999","MOORED BUOY 46078","","",56.05,-152.45,30
"1291","997206","99999","MOORED BUOY 46086","","",32.5,-118,30
"1292","997214","99999","MOORED BUOY 42045","","",26.133,-96.3,30
"1293","997239","99999","SOUTH PELTO BLOCK","US","LA",28.867,-90.483,400
"1294","997248","99999","MOORED BUOY 13600","","",21.9,-44.2,0
"1295","997303","99999","HORN POINT WX STN","US","MD",38.583,-76.083,100
"1296","997350","99999","MAGUESYES ISLANDS","PU","",17.967,-67.05,50
"1297","997394","99999","MOORED BUOY 46229","US","CA",43.4,-124.65,0
"1298","997396","99999","MOORED BUOY 41040","","",14.5,-53.017,30
"1299","997479","99999","MOORED BUOY 44844","","",56.7,-33.8,30
"1300","997564","99999","DATA BUOY 51742","","",36.167,158.4,30
"1301","997601","99999","DATA BUOY 21915","","",38.5,134.2,30
"1302","997628","99999","DATA BUOY 31507","","",18.7,-84.2,30
"1303","997660","99999","DATA BUOY 41917","","",32.9,-71.1,30
"1304","997676","99999","DATA BUOY 46972","","",23.1,-125.1,30
"1305","997704","99999","RED DOG DOCK","US","AK",67.567,-164.65,30
"1306","997711","99999","DATA BUOY 21540","","",44,-172.4,30
"1307","997785","99999","MENOMINEE","US","MI",45.1,-87.583,1780
"1308","997828","99999","DRIFTING BUOY 15663","","",NA,NA,NA
"1309","997856","99999","DRIFTING BUOY 41681","","",NA,NA,NA
"1310","997865","99999","DRIFTING BUOY 41902","","",NA,NA,NA
"1311","997891","99999","DRIFTING BUOY 44624","","",NA,NA,NA
"1312","997906","99999","DRIFTING BUOY 44779","","",NA,NA,NA
"1313","997942","99999","DRIFTING BUOY 48524","","",NA,NA,NA
"1314","997953","99999","DRIFTING BUOY 51809","","",NA,NA,NA
"1315","997968","99999","DRIFTING BUOY 61876","","",NA,NA,NA
"1316","997980","99999","DRIFTING BUOY 64618","","",NA,NA,NA
"1317","998003","99999","JOBOS BAY RESERVE","PU","",17.95,-66.233,150
"1318","998207","99999","SHELL WEST DELTA 143","US","",28.65,-89.55,410
"1319","998560","99999","JHQ MOENCHENGLADBAC","","",51.183,6.213,670
"1320","999329","99999","CATAWBA","","",NA,NA,NA
"1321","999348","99999","JOHN MCDONNELL","","",NA,NA,NA
"1322","999350","99999","KILAUEA","","",NA,NA,NA
"1323","999366","99999","PATUXENT","","",NA,NA,NA
"1324","999416","99999","CHOSIN","","",NA,NA,NA
"1325","999434","99999","DEXTROUS","","",NA,NA,NA
"1326","999439","99999","DULUTH","","",NA,NA,NA
"1327","999451","99999","GARY","","",NA,NA,NA
"1328","999531","99999","RAVEN","","",NA,NA,NA
"1329","999554","99999","SIROCCO","","",NA,NA,NA
"1330","999999","03063","CRN CO LA JUNTA 17 WSW","US","CO",37.864,-103.822,13369
"1331","999999","03841","ATDL","US","TN",36,-84.25,2682
"1332","999999","03849","LONDON-CORBIN AP","US","KY",37.087,-84.077,3691
"1333","999999","03969","STEPHENVILLE CLARK FIELD","US","TX",32.215,-98.178,4026
"1334","999999","04126","CRN ID ARCO 17 SW","US","ID",43.462,-113.556,18044
"1335","999999","04137","CRN MT DILLON 18 WSW","US","MT",45.158,-113.006,18200
"1336","999999","12926","CORPUS CHRISTI NAS","US","TX",27.7,-97.283,58
"1337","999999","12930","NEW ORLEANS AUDUBON","US","LA",30.25,-89.767,76
"1338","999999","12957","PORT ISABEL CAMERON COUNTY AP","US","TX",26.166,-97.346,58
"1339","999999","13734","MARTINSBURG EASTERN WV REG AP","US","WV",39.402,-77.984,1628
"1340","999999","13776","LUMBERTON MUNICIPAL AP","US","NC",34.61,-79.059,384
"1341","999999","13777","BALIMORE CUSTOM HOUSE","US","MD",39.281,-76.61,58
"1342","999999","13928","WACO JAMES CONNALLY AFB","US","TX",31.633,-97.067,1530
"1343","999999","13965","ARDMORE INTERMEDIATE FLD","US","OK",34.3,-97.15,2640
"1344","999999","13991","MARSHALL","US","MO",39.117,-93.217,2408
"1345","999999","14754","TOBYHANNA","US","PA",41.183,-75.417,5944
"1346","999999","14762","PITTSBURGH ALLEGHENY CO AP","US","PA",40.355,-79.922,3880
"1347","999999","14781","AYER","US","MA",42.567,-71.6,820
"1348","999999","14950","OTTUMWA INDUSTRIAL AP","US","IA",41.107,-92.448,2576
"1349","999999","14993","LAMONI FAA AIRPORT","US","IA",40.65,-94,3560
"1350","999999","23122","NORTON AAF","US","CA",34.1,-117.25,3350
"1351","999999","23155","BAKERSFIELD KERN COUNTY ARPT","US","CA",35.434,-119.056,1500
"1352","999999","23906","CRN TX PORT ARANSAS 32 NNE","US","TX",28.305,-96.823,46
"1353","028970","99999","KAJAANI","FI","",64.283,27.683,1360
"1354","029190","99999","ILOMANTSI","FI","",62.683,30.95,1650
"1355","029210","99999","MOIKIPAA","FI","",62.883,21.1,130
"1356","029810","99999","UTO","FI","",59.783,21.383,70
"1357","030340","99999","AULTBEA NO2","UK","",57.867,-5.633,100
"1358","030640","99999","GLENMORE LODGE","UK","",57.167,-3.7,3410
"1359","030970","99999","ENOCHDHU","UK","",56.75,-6.883,40
"1360","031340","99999","GLASGOW BISHOPTON","UK","",55.9,-4.533,590
"1361","032080","99999","POINT OF AYRE (LH)","UK","",54.417,-4.367,90
"1362","032300","99999","REDESDALE CAMP","UK","",55.283,-2.283,2120
"1363","033410","99999","FLASH-IN-STAFFORD","UK","",53.2,-1.967,4570
"1364","033830","99999","LECONFIELD","UK","",53.883,-0.433,90
"1365","033990","99999","DOWSING (LGT-VSL)","UK","",53.567,0.833,50
"1366","034530","99999","COTTESMORE","UK","",52.733,-0.65,1420
"1367","035450","99999","","","",0,0,0
"1368","035715","99999","CAMBRIDGE","UK","",52.2,0.167,140
"1369","035860","99999","HONINGTON","UK","",52.333,0.767,530
"1370","036330","99999","GLOUCESTER","UK","",51.867,-2.217,240
"1371","036700","99999","NORTHWOOD","UK","",51.617,-0.4,1130
"1372","036980","99999","TONGUE (LGT-VSL)","UK","",51.517,1.383,150
"1373","037740","99999","","","",0,0,0
"1374","038710","99999","","","",0,0,0
"1375","038871","99999","LYDD AIRPORT","UK","",50.95,0.933,30
"1376","040030","99999","KVIGINDISDALUR","IL","",65.55,-24.017,490
"1377","040520","99999","BASAR","IL","",64.683,-19.483,2400
"1378","040890","99999","EGILSSTADIR","IL","",65.283,-14.4,230
"1379","041040","99999","GUFUSKALAR","IL","",64.9,-23.933,70
"1380","042820","99999","ALLUITSUP PAA","GL","",60.467,-45.583,230
"1381","043300","99999","DANEBORG","GL","",74.3,-20.217,440
"1382","049999","00001","BARBER","GL","",71.67,-38.17,31700
"1383","050530","99999","JONKOPING","SW","",57.783,14.167,978
"1384","050780","99999","BJURAKER","SW","",61.867,19.567,719
"1385","050860","99999","UPSALA","SW","",59.85,17.633,241
"1386","060430","99999","FREDERIKSHAVN","DN","",57.4,10.517,800
"1387","060990","99999","ROEMOE HAVNEBY","DN","",55.083,8.567,50
"1388","062100","99999","VALKENBURG","NL","",52.183,4.417,20
"1389","062770","99999","LAUWERSOOG AWS","NL","",53.417,6.2,0
"1390","062790","99999","HOOGEVEEN","NL","",52.75,6.517,160
"1391","063110","99999","HOOFDPLAAT","NL","",51.383,3.667,NA
"1392","063150","99999","HANSWEERT","NL","",51.45,4,NA
"1393","064630","99999","GOETSENHOVEN","BX","",50.783,4.95,810
"1394","066099","99999","DUBENDORF","SW","",47.4,8.65,4480
"1395","066160","99999","FAHY","SW","",47.433,6.95,5970
"1396","066280","99999","PLAFFEIEN-OBERSCHRO","SW","",46.75,7.267,10410
"1397","066600","99999","ZUERICH-FLUNTER","SW","",47.383,8.567,5690
"1398","066900","99999","ALTENRHEIN-FLUGPLAT","SW","",47.483,9.383,3980
"1399","067330","99999","BOLTIGEN","SW","",46.633,7.383,8200
"1400","067620","99999","LOCARNO-MAGADINO","SW","",46.167,8.883,1980
"1401","067930","99999","VALBELLA","SW","",46.75,9.55,15600
"1402","067990","99999","ALUNS","SW","",46.817,10.267,24000
"1403","069090","99999","ZUERICH","SW","",47.383,8.533,4090
"1404","070251","99999","","","",0,0,0
"1405","070460","99999","LE HAVRE-OCTEVILLE","FR","",49.533,0.083,940
"1406","071513","99999","PARIS MET CENTER","FR","",48.833,2.333,750
"1407","071790","99999","","","",0,0,0
"1408","074750","99999","ST-ETIENNE BOUTHEON","FR","",45.533,4.3,4020
"1409","074810","99999","LYON-SATOLAS","FR","",45.733,5.083,2400
"1410","074820","99999","AMBERIEU","FR","",45.983,5.333,2530
"1411","075690","99999","BOLLENE","FR","",44.317,4.767,3270
"1412","075890","99999","D AVIGNON-PUJAUT","FR","",44.933,6.259,15700
"1413","076570","99999","APT/ST. CHRISTOL AB","FR","",44.05,5.483,8370
"1414","080870","99999","BARDENAS REALES","SP","",42.2,-1.45,2950
"1415","083550","99999","BOGUS SPANISH","SP","",0,0,0
"1416","089440","99999","MASELLA","SP","",42.333,1.883,19850
"1417","421220","99999","ANUPGARH","IN","",29.167,73.167,1540
"1418","424140","99999","CHAPARMUKH","IN","",26.2,92.517,660
"1419","424980","99999","BHAGALPUR","IN","",25.233,86.95,490
"1420","425030","99999","MALDA","IN","",25.033,88.133,310
"1421","426930","99999","AMBIKAPUR","IN","",23.167,83.25,6110
"1422","427150","99999","MALANJKHAND","IN","",22,80.7,5810
"1423","428020","99999","KALAIKUNDA","IN","",22.333,87.217,620
"1424","428340","99999","AMRELI","IN","",21.6,71.217,1300
"1425","428380","99999","BHAUNAGAR","IN","",21.75,72.2,110
"1426","429390","99999","WARDHA","IN","",20.667,78.583,2830
"1427","429770","99999","SANDHEADS","IN","",20.85,88.25,100
"1428","430220","99999","PRIYADARSHINI","IN","",19.75,78.033,4590
"1429","011100","99999","YTTERHOLMEN FYR","NO","",66,11.683,330
"1430","011150","99999","MYKEN","NO","",66.767,12.483,130
"1431","011895","99999","","","",0,0,0
"1432","434000","99999","KANKASANTURAI","SB","",9.8,80.067,150
"1433","012680","99999","","","",0,0,0
"1434","012770","99999","STEINKJER","NO","",64.016,11.45,800
"1435","013170","99999","BERGEN/FLORIDA","NO","",60.383,5.333,360
"1436","442750","99999","BAYANBULAG","MO","",46.833,98.083,22550
"1437","013780","99999","LILLEHAMMER-SAETHER","NO","",61.1,10.467,2390
"1438","013790","99999","SOR-NESSET","NO","",61.883,10.15,7390
"1439","443020","99999","BAYAN-OVOO","MO","",47.783,112.117,9260
"1440","014340","99999","VAAGSLI","NO","",59.767,7.367,8220
"1441","450010","99999","CHEUNG CHAU","CI","",22.2,114.017,790
"1442","450100","99999","TATE'S CAIRN","CI","",22.367,114.217,5760
"1443","450110","99999","TAIPA GRANDE","MU","",22.15,113.6,60
"1444","014770","99999","KONGSBERG IV","NO","",59.667,9.65,1690
"1445","466900","99999","TANSHUI","TW","",25.167,121.433,190
"1446","466960","99999","SUNGSHAN/TAIPEI","TW","",25.067,121.55,60
"1447","020630","99999","ASELE","SN","",64.167,17.367,3290
"1448","020740","99999","OREBRO/EKEBY","SN","",59.267,15.333,330
"1449","020880","99999","KOMPELUSVAARA","SN","",67.083,22.217,2630
"1450","470520","99999","YANGDOK","KR","",39.217,126.65,2790
"1451","021140","99999","NORRAKER","SN","",64.45,15.6,3460
"1452","470810","99999","DAESEONGSAN","KO","",38.217,127.533,11680
"1453","471030","99999","BAENGNYEONGDO AB","KO","",37.933,124.667,1710
"1454","471145","99999","CHUNGJU","KO","",37.067,127.883,590
"1455","471204","99999","SV RI SAN","KO","",37.35,126.917,1220
"1456","022590","99999","KRAMFORS (SWE-AFB)","SN","",63.05,17.767,190
"1457","022630","99999","FREDRIKA","SN","",64.083,18.367,3270
"1458","022660","99999","","","",0,0,0
"1459","472410","99999","","","",0,0,0
"1460","473460","99999","","","",0,0,0
"1461","474020","99999","KITAMIESASHI","JP","",44.933,142.583,80
"1462","474150","99999","SAPPORO/KENASHIYAMA","JP","",43.133,141.017,7000
"1463","474210","99999","SUTTSU","JP","",42.8,140.217,380
"1464","024760","99999","FLODA","SN","",59.05,16.4,330
"1465","025590","99999","GLADHAMMAR","SN","",57.7,16.467,310
"1466","026110","99999","HELSINGBORG","SN","",56.033,12.767,440
"1467","027110","99999","VAASA KESKUSTA","FI","",63.1,21.617,130
"1468","027950","99999","HELSINKI HARMAJA","FI","",60.1,24.983,60
"1469","028140","99999","KEMIJARVI LENTOKENTT","FI","",66.717,27.167,2090
"1470","100670","99999","MARIENLEUCHTE","DL","",54.5,11.233,120
"1471","101850","99999","NAME AND LOC UNKN","DL","",54.1,13.45,9
"1472","102380","99999","BERGEN","DL","",52.817,9.933,770
"1473","103825","99999","BERLIN/GATOW (RAF)","DL","",52.483,13.133,490
"1474","104260","99999","PADERBORN/LIPPSTADT","DL","",51.617,8.617,2390
"1475","104550","99999","SCHIERKE (AUT)","DL","",51.767,10.667,6170
"1476","105180","99999","BONN-HARDTHOEHE","DL","",50.7,7.033,1600
"1477","105600","99999","","","",0,0,0
"1478","106162","99999","SIEGERLAND","","",50.7,8.083,5990
"1479","106420","99999","HANAU","DL","",50.167,8.967,1120
"1480","106530","99999","GIEBELSTADT","DL","",49.65,9.967,2980
"1481","107050","99999","","","",0,0,0
"1482","107655","99999","FEUCHT AAF","DL","",49.383,11.167,3860
"1483","107715","99999","HOHENFELS (USA-AF)&","DL","",49.217,11.833,4420
"1484","108040","99999","","","",0,0,0
"1485","108354","99999","GOPPINGEN (USA-AF)","DL","",48.717,9.7,3820
"1486","108410","99999","","","",0,0,0
"1487","108523","99999","AUGSBURG/MULHAUSEN","DL","",48.433,10.933,4610
"1488","108600","99999","INGOLSTADT","DL","",48.717,11.533,3650
"1489","109970","99999","","","",0,0,0
"1490","110260","99999","KREMS/LANGENLOIS GN","OS","",48.45,15.633,3120
"1491","111060","99999","LAZ/MUTTERSBERG","OS","",47.183,9.817,9450
"1492","111190","99999","SEEFELD","OS","",47.333,11.183,11820
"1493","111350","99999","HAHNENKAMM/EHRENBAC","OS","",47.417,12.367,17630
"1494","111680","99999","WALD AM SCHOBER","OS","",47.45,14.667,8490
"1495","112140","99999","PREITENEGG","OS","",46.933,14.917,10350
"1496","112250","99999","WEITENSFELD","OS","",46.85,14.2,7050
"1497","113480","99999","MARIAPFARR","OS","",47.15,13.75,11510
"1498","119270","99999","LUCENEC","CZ","",48.333,19.733,2150
"1499","119580","99999","KOJSOVSKA HOLA","CZ","",48.783,20.983,12460
"1500","121470","99999","GORA SZWEDOW","PL","",54.633,18.817,170
"1501","474720","99999","RISHIRI AIRPORT","JP","",45.233,141.2,330
"1502","474780","99999","BOGUS JAPANESE","JP","",0,0,0
"1503","475730","43318","NIIGATA","JP","",37.95,139.117,40
"1504","476050","99999","KANAZAWA","JP","",36.583,136.633,330
"1505","476350","99999","NAGOYA AIRPORT","JP","",35.25,136.917,160
"1506","476490","99999","UENO","JP","",34.767,136.15,1610
"1507","476540","99999","HAMAMATSU","JP","",34.717,137.717,330
"1508","476600","99999","TACHIKAWA AB","JP","",35.7,139.4,980
"1509","476780","99999","HACHIJOJIMA","JP","",33.117,139.783,800
"1510","476900","99999","NIKKO","JP","",36.733,139.5,12940
"1511","477760","99999","SUMOTO","JP","",34.333,134.9,1120
"1512","477890","99999","HIROSHIMA AIRPORT","JP","",34.433,132.917,3340
"1513","478230","99999","AKUNE","JP","",32.033,130.199,450
"1514","478300","99999","MIYAZAKI","JP","",31.933,131.417,150
"1515","478520","99999","OITA AIRPORT","JP","",33.483,131.733,80
"1516","478920","99999","UWAJIMA","JP","",33.233,132.55,140
"1517","480080","99999","MYITKYINA","BM","",25.367,97.4,1470
"1518","483545","99999","UDORN AB (USAF)","TH","",17.383,102.8,1780
"1519","483600","99999","NONGBUALAMPHU","TH","",17.217,102.417,2280
"1520","484005","99999","TA KHLI  THAILAND AB","TH","",15.233,100.283,370
"1521","484090","99999","SI SAKET AGROMET","TH","",15.033,104.25,1270
"1522","484262","99999","LOP BURI/KOKE KATHI","TH","",14.883,100.667,300
"1523","484305","99999","KHAO KHEO","TH","",14.417,101.533,6100
"1524","484640","99999","RATCHA BURI","TH","",13.483,99.783,50
"1525","484775","99999","U-TAPHAO INTL(NAVY)","TH","",12.68,101.005,180
"1526","485540","99999","NAKHONSI THAMMARAT","TH","",8.05,100,30
"1527","485806","99999","HAT YAI INTL (AFB)&","TH","",6.933,100.417,270
"1528","488890","99999","PHAN RANG","VS","",11.633,108.95,310
"1529","489005","99999","DIAN","VS","",10.9,106.75,320
"1530","489041","99999","VUNGTAU","VS","",10.367,107.1,40
"1531","489565","99999","NEW PAKSONG","LA","",15.183,106.233,12190
"1532","489620","99999","BATTAMBANG","KP","",13.1,103.2,130
"1533","505030","99999","SOMNELICH","AU","",47.05,13.05,31050
"1534","506320","99999","BUGT","CI","",48.767,121.917,7390
"1535","509540","99999","CHAO-YUAN","CI","",45.517,0,0
"1536","514310","99999","YINING","CI","",43.95,81.333,6640
"1537","516420","99999","LUNTAI/BUGUR","CI","",41.783,84.167,8830
"1538","519310","99999","YUTIAN/KERIYA","CI","",36.867,81.7,15540
"1539","521810","99999","LTVINOVICE -CKSKE","EZ","",48.95,14.467,3908
"1540","124170","99999","","","",0,0,0
"1541","124710","99999","BELSK","PL","",51.833,20.8,1800
"1542","126600","99999","NOWY SACZ","PL","",49.617,20.7,2950
"1543","128550","99999","","","",0,0,0
"1544","130210","99999","SMARTNO","YG","",46.483,15.117,4520
"1545","130240","99999","LISCA","LJ","",46.067,15.283,9410
"1546","130250","99999","MARIBOU-MESTO","YG","",46.533,14.867,1570
"1547","131110","99999","IL SISTRICA","YG","",45.567,14.25,4130
"1548","132240","99999","ZADAR/ZEMUNIK","RH","",44.083,15.35,820
"1549","132780","99999","KRAGUJEVAC","","",44.033,20.933,1850
"1550","133700","99999","POZEGA UZICKA","YG","",43.833,20.033,3120
"1551","135920","99999","DEMIR KAPIJA","YG","",41.417,22.25,1260
"1552","136000","99999","SHKODRA","AB","",42.1,19.533,430
"1553","136120","99999","DURRES","AB","",41.3,19.467,80
"1554","141060","99999","NOVA GORICA","LJ","",45.9,13.633,560
"1555","142440","99999","SISAK","RH","",45.5,16.367,1060
"1556","150070","99999","RADAUTI","RO","",47.833,25.9,3910
"1557","150235","99999","SUCEAVA/SALCEA","RO","",47.65,26.25,3500
"1558","150430","99999","BOGUS ROMANIAN","RO","",0,0,0
"1559","151200","99999","CLUJ-NAPOCA","RO","",46.783,23.567,4130
